{
  "1000": {
    "city": "Lausanne",
    "canton": "VD",
    "lat": 46.56749,
    "lng": 6.68096
  },
  "1001": {
    "city": "Lausanne",
    "canton": "VD",
    "lat": 46.24353,
    "lng": 7.38207
  },
  "1002": {
    "city": "Lausanne",
    "canton": "VD",
    "lat": 46.52182,
    "lng": 6.63266
  },
  "1003": {
    "city": "Lausanne",
    "canton": "VD",
    "lat": 46.52079,
    "lng": 6.63149
  },
  "1004": {
    "city": "Lausanne",
    "canton": "VD",
    "lat": 46.53004,
    "lng": 6.61795
  },
  "1005": {
    "city": "Lausanne",
    "canton": "VD",
    "lat": 46.52014,
    "lng": 6.64275
  },
  "1006": {
    "city": "Lausanne",
    "canton": "VD",
    "lat": 46.50965,
    "lng": 6.63603
  },
  "1007": {
    "city": "Lausanne",
    "canton": "VD",
    "lat": 46.51605,
    "lng": 6.609
  },
  "1008": {
    "city": "Prilly",
    "canton": "VD",
    "lat": 46.53464,
    "lng": 6.60524
  },
  "1009": {
    "city": "Pully",
    "canton": "VD",
    "lat": 46.51311,
    "lng": 6.65966
  },
  "1010": {
    "city": "Lausanne",
    "canton": "VD",
    "lat": 46.53327,
    "lng": 6.64773
  },
  "1011": {
    "city": "Lausanne",
    "canton": "VD",
    "lat": 46.52563,
    "lng": 6.64189
  },
  "1012": {
    "city": "Lausanne",
    "canton": "VD",
    "lat": 46.52775,
    "lng": 6.65737
  },
  "1014": {
    "city": "Lausanne Adm cant VD",
    "canton": "VD",
    "lat": 46.5205,
    "lng": 6.62683
  },
  "1015": {
    "city": "Lausanne",
    "canton": "VD",
    "lat": 46.55667,
    "lng": 6.68338
  },
  "1017": {
    "city": "Lausanne Charles Veillon SA",
    "canton": "VD",
    "lat": 46.83838,
    "lng": 6.97316
  },
  "1018": {
    "city": "Lausanne",
    "canton": "VD",
    "lat": 46.53416,
    "lng": 6.63032
  },
  "1019": {
    "city": "Lausanne Services spéciaux",
    "canton": "VD",
    "lat": 46.83838,
    "lng": 6.97316
  },
  "1020": {
    "city": "Renens VD 2",
    "canton": "VD",
    "lat": 46.53696,
    "lng": 6.59095
  },
  "1022": {
    "city": "Chavannes-près-Renens",
    "canton": "VD",
    "lat": 46.52787,
    "lng": 6.57182
  },
  "1023": {
    "city": "Crissier 1",
    "canton": "VD",
    "lat": 46.55036,
    "lng": 6.57803
  },
  "1024": {
    "city": "Ecublens VD",
    "canton": "VD",
    "lat": 46.5239,
    "lng": 6.55341
  },
  "1025": {
    "city": "St-Sulpice VD",
    "canton": "VD",
    "lat": 46.51277,
    "lng": 6.56122
  },
  "1026": {
    "city": "Echandens-Denges",
    "canton": "VD",
    "lat": 46.53712,
    "lng": 6.53691
  },
  "1027": {
    "city": "Lonay",
    "canton": "VD",
    "lat": 46.52665,
    "lng": 6.52055
  },
  "1028": {
    "city": "Préverenges",
    "canton": "VD",
    "lat": 46.51708,
    "lng": 6.52805
  },
  "1029": {
    "city": "Villars-Ste-Croix",
    "canton": "VD",
    "lat": 46.56798,
    "lng": 6.56123
  },
  "1030": {
    "city": "Bussigny",
    "canton": "VD",
    "lat": 46.55174,
    "lng": 6.55862
  },
  "1031": {
    "city": "Mex VD",
    "canton": "VD",
    "lat": 46.57769,
    "lng": 6.55256
  },
  "1032": {
    "city": "Romanel-sur-Lausanne",
    "canton": "VD",
    "lat": 46.57385,
    "lng": 6.61665
  },
  "1033": {
    "city": "Cheseaux-sur-Lausanne",
    "canton": "VD",
    "lat": 46.57711,
    "lng": 6.60866
  },
  "1034": {
    "city": "Boussens",
    "canton": "VD",
    "lat": 46.60274,
    "lng": 6.58385
  },
  "1035": {
    "city": "Bournens",
    "canton": "VD",
    "lat": 46.6042,
    "lng": 6.56369
  },
  "1036": {
    "city": "Sullens",
    "canton": "VD",
    "lat": 46.5936,
    "lng": 6.56601
  },
  "1037": {
    "city": "Etagnières",
    "canton": "VD",
    "lat": 46.5999,
    "lng": 6.61292
  },
  "1038": {
    "city": "Bercher",
    "canton": "VD",
    "lat": 46.69206,
    "lng": 6.70859
  },
  "1039": {
    "city": "Cheseaux Polyval",
    "canton": "VD",
    "lat": 46.22993,
    "lng": 6.95328
  },
  "1040": {
    "city": "Villars-le-Terroir",
    "canton": "VD",
    "lat": 46.65755,
    "lng": 6.63905
  },
  "1041": {
    "city": "Poliez-Pittet",
    "canton": "VD",
    "lat": 46.62746,
    "lng": 6.68194
  },
  "1042": {
    "city": "Bioley-Orjulaz",
    "canton": "VD",
    "lat": 46.6212,
    "lng": 6.59814
  },
  "1043": {
    "city": "Sugnens",
    "canton": "VD",
    "lat": 46.6552,
    "lng": 6.67183
  },
  "1044": {
    "city": "Fey",
    "canton": "VD",
    "lat": 46.67606,
    "lng": 6.68168
  },
  "1045": {
    "city": "Ogens",
    "canton": "VD",
    "lat": 46.71042,
    "lng": 6.72349
  },
  "1046": {
    "city": "Rueyres",
    "canton": "VD",
    "lat": 46.6937,
    "lng": 6.69266
  },
  "1047": {
    "city": "Oppens",
    "canton": "VD",
    "lat": 46.71398,
    "lng": 6.69168
  },
  "1052": {
    "city": "Le Mont-sur-Lausanne",
    "canton": "VD",
    "lat": 46.55331,
    "lng": 6.63399
  },
  "1053": {
    "city": "Cugy VD",
    "canton": "VD",
    "lat": 46.59026,
    "lng": 6.66465
  },
  "1054": {
    "city": "Morrens VD",
    "canton": "VD",
    "lat": 46.59107,
    "lng": 6.62568
  },
  "1055": {
    "city": "Froideville",
    "canton": "VD",
    "lat": 46.6015,
    "lng": 6.68221
  },
  "1058": {
    "city": "Villars-Tiercelin",
    "canton": "VD",
    "lat": 46.62569,
    "lng": 6.70336
  },
  "1059": {
    "city": "Peney-le-Jorat",
    "canton": "VD",
    "lat": 46.63215,
    "lng": 6.72843
  },
  "1061": {
    "city": "Villars-Mendraz",
    "canton": "VD",
    "lat": 46.64743,
    "lng": 6.72924
  },
  "1062": {
    "city": "Sottens",
    "canton": "VD",
    "lat": 46.65539,
    "lng": 6.74217
  },
  "1063": {
    "city": "Peyres-Possens",
    "canton": "VD",
    "lat": 46.6633,
    "lng": 6.70698
  },
  "1066": {
    "city": "Epalinges",
    "canton": "VD",
    "lat": 46.54382,
    "lng": 6.66043
  },
  "1068": {
    "city": "Les Monts-de-Pully",
    "canton": "VD",
    "lat": 46.53541,
    "lng": 6.68835
  },
  "1070": {
    "city": "Puidoux",
    "canton": "VD",
    "lat": 46.51313,
    "lng": 6.78253
  },
  "1071": {
    "city": "St-Saphorin (Lavaux)",
    "canton": "VD",
    "lat": 46.47328,
    "lng": 6.79618
  },
  "1072": {
    "city": "Forel (Lavaux)",
    "canton": "VD",
    "lat": 46.54338,
    "lng": 6.77082
  },
  "1073": {
    "city": "Savigny",
    "canton": "VD",
    "lat": 46.53839,
    "lng": 6.73211
  },
  "1076": {
    "city": "Ferlens VD",
    "canton": "VD",
    "lat": 46.58894,
    "lng": 6.78555
  },
  "1077": {
    "city": "Servion",
    "canton": "VD",
    "lat": 46.57147,
    "lng": 6.77879
  },
  "1078": {
    "city": "Essertes",
    "canton": "VD",
    "lat": 46.56237,
    "lng": 6.78913
  },
  "1080": {
    "city": "Les Cullayes",
    "canton": "VD",
    "lat": 46.5721,
    "lng": 6.75431
  },
  "1081": {
    "city": "Montpreveyres",
    "canton": "VD",
    "lat": 46.58212,
    "lng": 6.74081
  },
  "1082": {
    "city": "Corcelles-le-Jorat",
    "canton": "VD",
    "lat": 46.6065,
    "lng": 6.74229
  },
  "1083": {
    "city": "Mézières VD",
    "canton": "VD",
    "lat": 46.59553,
    "lng": 6.77029
  },
  "1084": {
    "city": "Carrouge VD",
    "canton": "VD",
    "lat": 46.60439,
    "lng": 6.77482
  },
  "1085": {
    "city": "Vulliens",
    "canton": "VD",
    "lat": 46.62232,
    "lng": 6.79213
  },
  "1088": {
    "city": "Ropraz",
    "canton": "VD",
    "lat": 46.61524,
    "lng": 6.75151
  },
  "1090": {
    "city": "La Croix (Lutry)",
    "canton": "VD",
    "lat": 46.52001,
    "lng": 6.70696
  },
  "1091": {
    "city": "Grandvaux",
    "canton": "VD",
    "lat": 46.51416,
    "lng": 6.72854
  },
  "1092": {
    "city": "Belmont-sur-Lausanne",
    "canton": "VD",
    "lat": 46.51913,
    "lng": 6.67891
  },
  "1093": {
    "city": "La Conversion",
    "canton": "VD",
    "lat": 46.51529,
    "lng": 6.68443
  },
  "1094": {
    "city": "Paudex",
    "canton": "VD",
    "lat": 46.50863,
    "lng": 6.67431
  },
  "1095": {
    "city": "Lutry",
    "canton": "VD",
    "lat": 46.50728,
    "lng": 6.69386
  },
  "1096": {
    "city": "Villette (Lavaux)",
    "canton": "VD",
    "lat": 46.48975,
    "lng": 6.72839
  },
  "1097": {
    "city": "Riex",
    "canton": "VD",
    "lat": 46.49342,
    "lng": 6.73627
  },
  "1098": {
    "city": "Epesses",
    "canton": "VD",
    "lat": 46.49352,
    "lng": 6.74642
  },
  "1110": {
    "city": "Morges 3",
    "canton": "VD",
    "lat": 46.51847,
    "lng": 6.50032
  },
  "1112": {
    "city": "Echichens",
    "canton": "VD",
    "lat": 46.52605,
    "lng": 6.49825
  },
  "1113": {
    "city": "St-Saphorin-sur-Morges",
    "canton": "VD",
    "lat": 46.54675,
    "lng": 6.4851
  },
  "1114": {
    "city": "Colombier VD",
    "canton": "VD",
    "lat": 46.5563,
    "lng": 6.47284
  },
  "1115": {
    "city": "Vullierens",
    "canton": "VD",
    "lat": 46.57484,
    "lng": 6.48445
  },
  "1116": {
    "city": "Cottens VD",
    "canton": "VD",
    "lat": 46.57208,
    "lng": 6.45399
  },
  "1117": {
    "city": "Grancy",
    "canton": "VD",
    "lat": 46.60552,
    "lng": 6.45941
  },
  "1121": {
    "city": "Bremblens",
    "canton": "VD",
    "lat": 46.54549,
    "lng": 6.51861
  },
  "1122": {
    "city": "Romanel-sur-Morges",
    "canton": "VD",
    "lat": 46.55555,
    "lng": 6.51087
  },
  "1123": {
    "city": "Aclens",
    "canton": "VD",
    "lat": 46.56779,
    "lng": 6.50996
  },
  "1124": {
    "city": "Gollion",
    "canton": "VD",
    "lat": 46.58528,
    "lng": 6.50679
  },
  "1125": {
    "city": "Monnaz",
    "canton": "VD",
    "lat": 46.52867,
    "lng": 6.47901
  },
  "1126": {
    "city": "Vaux-sur-Morges",
    "canton": "VD",
    "lat": 46.53553,
    "lng": 6.46328
  },
  "1127": {
    "city": "Clarmont",
    "canton": "VD",
    "lat": 46.54685,
    "lng": 6.44991
  },
  "1128": {
    "city": "Reverolle",
    "canton": "VD",
    "lat": 46.54138,
    "lng": 6.43868
  },
  "1131": {
    "city": "Tolochenaz",
    "canton": "VD",
    "lat": 46.49929,
    "lng": 6.4799
  },
  "1132": {
    "city": "Lully VD",
    "canton": "VD",
    "lat": 46.50501,
    "lng": 6.46415
  },
  "1134": {
    "city": "Vufflens-le-Château",
    "canton": "VD",
    "lat": 46.52506,
    "lng": 6.47441
  },
  "1135": {
    "city": "Denens",
    "canton": "VD",
    "lat": 46.51844,
    "lng": 6.45656
  },
  "1136": {
    "city": "Bussy-Chardonney",
    "canton": "VD",
    "lat": 46.52907,
    "lng": 6.44186
  },
  "1141": {
    "city": "Sévery",
    "canton": "VD",
    "lat": 46.57601,
    "lng": 6.43825
  },
  "1142": {
    "city": "Pampigny",
    "canton": "VD",
    "lat": 46.58034,
    "lng": 6.42749
  },
  "1143": {
    "city": "Apples",
    "canton": "VD",
    "lat": 46.55219,
    "lng": 6.42894
  },
  "1144": {
    "city": "Ballens",
    "canton": "VD",
    "lat": 46.55435,
    "lng": 6.37531
  },
  "1145": {
    "city": "Bière",
    "canton": "VD",
    "lat": 46.53738,
    "lng": 6.33397
  },
  "1146": {
    "city": "Mollens VD",
    "canton": "VD",
    "lat": 46.57707,
    "lng": 6.36377
  },
  "1147": {
    "city": "Montricher",
    "canton": "VD",
    "lat": 46.5998,
    "lng": 6.37586
  },
  "1148": {
    "city": "Villars-Bozon",
    "canton": "VD",
    "lat": 46.60658,
    "lng": 6.40715
  },
  "1149": {
    "city": "Berolle",
    "canton": "VD",
    "lat": 46.55834,
    "lng": 6.33694
  },
  "1162": {
    "city": "St-Prex",
    "canton": "VD",
    "lat": 46.48434,
    "lng": 6.44526
  },
  "1163": {
    "city": "Etoy",
    "canton": "VD",
    "lat": 46.48603,
    "lng": 6.41923
  },
  "1164": {
    "city": "Buchillon",
    "canton": "VD",
    "lat": 46.46938,
    "lng": 6.41068
  },
  "1165": {
    "city": "Allaman",
    "canton": "VD",
    "lat": 46.47032,
    "lng": 6.39388
  },
  "1166": {
    "city": "Perroy",
    "canton": "VD",
    "lat": 46.46966,
    "lng": 6.36256
  },
  "1167": {
    "city": "Lussy-sur-Morges",
    "canton": "VD",
    "lat": 46.50396,
    "lng": 6.4502
  },
  "1168": {
    "city": "Villars-sous-Yens",
    "canton": "VD",
    "lat": 46.51019,
    "lng": 6.42872
  },
  "1169": {
    "city": "Yens",
    "canton": "VD",
    "lat": 46.51962,
    "lng": 6.41792
  },
  "1170": {
    "city": "Aubonne",
    "canton": "VD",
    "lat": 46.48717,
    "lng": 6.40102
  },
  "1172": {
    "city": "Bougy-Villars",
    "canton": "VD",
    "lat": 46.48491,
    "lng": 6.35625
  },
  "1173": {
    "city": "Féchy",
    "canton": "VD",
    "lat": 46.47957,
    "lng": 6.37288
  },
  "1174": {
    "city": "Pizy",
    "canton": "VD",
    "lat": 46.49118,
    "lng": 6.35324
  },
  "1175": {
    "city": "Lavigny",
    "canton": "VD",
    "lat": 46.50125,
    "lng": 6.4044
  },
  "1176": {
    "city": "St-Livres",
    "canton": "VD",
    "lat": 46.50768,
    "lng": 6.38756
  },
  "1180": {
    "city": "Tartegnin",
    "canton": "VD",
    "lat": 46.46642,
    "lng": 6.31664
  },
  "1182": {
    "city": "Gilly",
    "canton": "VD",
    "lat": 46.46282,
    "lng": 6.30146
  },
  "1183": {
    "city": "Bursins",
    "canton": "VD",
    "lat": 46.45207,
    "lng": 6.28792
  },
  "1184": {
    "city": "Vinzel",
    "canton": "VD",
    "lat": 46.4475,
    "lng": 6.27943
  },
  "1185": {
    "city": "Mont-sur-Rolle",
    "canton": "VD",
    "lat": 46.4693,
    "lng": 6.34054
  },
  "1186": {
    "city": "Essertines-sur-Rolle",
    "canton": "VD",
    "lat": 46.49209,
    "lng": 6.3173
  },
  "1187": {
    "city": "St-Oyens",
    "canton": "VD",
    "lat": 46.49872,
    "lng": 6.30827
  },
  "1188": {
    "city": "St-George",
    "canton": "VD",
    "lat": 46.51429,
    "lng": 6.26047
  },
  "1189": {
    "city": "Saubraz",
    "canton": "VD",
    "lat": 46.51434,
    "lng": 6.33046
  },
  "1195": {
    "city": "Dully-Bursinel",
    "canton": "VD",
    "lat": 46.43654,
    "lng": 6.3071
  },
  "1196": {
    "city": "Gland",
    "canton": "VD",
    "lat": 46.41678,
    "lng": 6.27167
  },
  "1197": {
    "city": "Prangins",
    "canton": "VD",
    "lat": 46.39834,
    "lng": 6.25633
  },
  "1200": {
    "city": "Genève",
    "canton": "GE",
    "lat": 46.21167,
    "lng": 6.13456
  },
  "1201": {
    "city": "Genève",
    "canton": "GE",
    "lat": 46.20955,
    "lng": 6.14505
  },
  "1202": {
    "city": "Genève",
    "canton": "GE",
    "lat": 46.22186,
    "lng": 6.13931
  },
  "1203": {
    "city": "Genève",
    "canton": "GE",
    "lat": 46.20599,
    "lng": 6.12191
  },
  "1204": {
    "city": "Genève",
    "canton": "GE",
    "lat": 46.20355,
    "lng": 6.14515
  },
  "1205": {
    "city": "Genève",
    "canton": "GE",
    "lat": 46.19027,
    "lng": 6.14648
  },
  "1206": {
    "city": "Genève",
    "canton": "GE",
    "lat": 46.18968,
    "lng": 6.15754
  },
  "1207": {
    "city": "Genève",
    "canton": "GE",
    "lat": 46.20502,
    "lng": 6.16225
  },
  "1208": {
    "city": "Genève",
    "canton": "GE",
    "lat": 46.19761,
    "lng": 6.16625
  },
  "1209": {
    "city": "Genève",
    "canton": "GE",
    "lat": 46.22149,
    "lng": 6.12384
  },
  "1211": {
    "city": "Genève 84 Votations",
    "canton": "GE",
    "lat": 46.20003,
    "lng": 6.16388
  },
  "1212": {
    "city": "Grand-Lancy",
    "canton": "GE",
    "lat": 46.16276,
    "lng": 6.12843
  },
  "1213": {
    "city": "Petit-Lancy 1",
    "canton": "GE",
    "lat": 46.19011,
    "lng": 6.11827
  },
  "1214": {
    "city": "Vernier",
    "canton": "GE",
    "lat": 46.21533,
    "lng": 6.08198
  },
  "1215": {
    "city": "Genève 15 Aéroport",
    "canton": "GE",
    "lat": 46.23725,
    "lng": 6.11586
  },
  "1216": {
    "city": "Cointrin",
    "canton": "GE",
    "lat": 46.22654,
    "lng": 6.10404
  },
  "1217": {
    "city": "Meyrin 2",
    "canton": "GE",
    "lat": 46.22823,
    "lng": 6.07241
  },
  "1218": {
    "city": "Le Grand-Saconnex",
    "canton": "GE",
    "lat": 46.23477,
    "lng": 6.1225
  },
  "1219": {
    "city": "Le Lignon",
    "canton": "GE",
    "lat": 46.20718,
    "lng": 6.0998
  },
  "1220": {
    "city": "Les Avanchets",
    "canton": "GE",
    "lat": 46.22049,
    "lng": 6.10894
  },
  "1222": {
    "city": "Vésenaz",
    "canton": "GE",
    "lat": 46.23936,
    "lng": 6.19754
  },
  "1223": {
    "city": "Cologny",
    "canton": "GE",
    "lat": 46.21221,
    "lng": 6.1848
  },
  "1224": {
    "city": "Chêne-Bougeries",
    "canton": "GE",
    "lat": 46.19767,
    "lng": 6.18725
  },
  "1225": {
    "city": "Chêne-Bourg",
    "canton": "GE",
    "lat": 46.18374,
    "lng": 6.18506
  },
  "1226": {
    "city": "Thônex",
    "canton": "GE",
    "lat": 46.19284,
    "lng": 6.20277
  },
  "1227": {
    "city": "Les Acacias",
    "canton": "GE",
    "lat": 46.18612,
    "lng": 6.13441
  },
  "1228": {
    "city": "Plan-les-Ouates",
    "canton": "GE",
    "lat": 46.16552,
    "lng": 6.11602
  },
  "1231": {
    "city": "Conches",
    "canton": "GE",
    "lat": 46.18635,
    "lng": 6.17552
  },
  "1232": {
    "city": "Confignon",
    "canton": "GE",
    "lat": 46.17403,
    "lng": 6.08356
  },
  "1233": {
    "city": "Bernex",
    "canton": "GE",
    "lat": 46.17714,
    "lng": 6.07648
  },
  "1234": {
    "city": "Vessy",
    "canton": "GE",
    "lat": 46.18244,
    "lng": 6.1666
  },
  "1236": {
    "city": "Cartigny",
    "canton": "GE",
    "lat": 46.17416,
    "lng": 6.01958
  },
  "1237": {
    "city": "Avully",
    "canton": "GE",
    "lat": 46.16961,
    "lng": 6.00138
  },
  "1239": {
    "city": "Collex",
    "canton": "GE",
    "lat": 46.26245,
    "lng": 6.12228
  },
  "1240": {
    "city": "Genève",
    "canton": "GE",
    "lat": 46.19944,
    "lng": 6.14512
  },
  "1241": {
    "city": "Puplinge",
    "canton": "GE",
    "lat": 46.21056,
    "lng": 6.23171
  },
  "1242": {
    "city": "Satigny",
    "canton": "GE",
    "lat": 46.21576,
    "lng": 6.03324
  },
  "1243": {
    "city": "Presinge",
    "canton": "GE",
    "lat": 46.2186,
    "lng": 6.25353
  },
  "1244": {
    "city": "Choulex",
    "canton": "GE",
    "lat": 46.22434,
    "lng": 6.22666
  },
  "1245": {
    "city": "Collonge-Bellerive",
    "canton": "GE",
    "lat": 46.25686,
    "lng": 6.20291
  },
  "1246": {
    "city": "Corsier GE",
    "canton": "GE",
    "lat": 46.26263,
    "lng": 6.22942
  },
  "1247": {
    "city": "Anières",
    "canton": "GE",
    "lat": 46.28462,
    "lng": 6.23994
  },
  "1248": {
    "city": "Hermance",
    "canton": "GE",
    "lat": 46.29053,
    "lng": 6.24676
  },
  "1251": {
    "city": "Gy",
    "canton": "GE",
    "lat": 46.25062,
    "lng": 6.24856
  },
  "1252": {
    "city": "Meinier",
    "canton": "GE",
    "lat": 46.24676,
    "lng": 6.23436
  },
  "1253": {
    "city": "Vandoeuvres",
    "canton": "GE",
    "lat": 46.22135,
    "lng": 6.20242
  },
  "1254": {
    "city": "Jussy",
    "canton": "GE",
    "lat": 46.2421,
    "lng": 6.30658
  },
  "1255": {
    "city": "Veyrier",
    "canton": "GE",
    "lat": 46.16951,
    "lng": 6.17555
  },
  "1256": {
    "city": "Troinex",
    "canton": "GE",
    "lat": 46.16122,
    "lng": 6.1514
  },
  "1257": {
    "city": "La Croix-de-Rozon",
    "canton": "GE",
    "lat": 46.14441,
    "lng": 6.12983
  },
  "1258": {
    "city": "Perly",
    "canton": "GE",
    "lat": 46.15535,
    "lng": 6.09458
  },
  "1260": {
    "city": "Nyon 2",
    "canton": "VD",
    "lat": 46.38419,
    "lng": 6.218
  },
  "1261": {
    "city": "Marchissy",
    "canton": "VD",
    "lat": 46.48784,
    "lng": 6.24704
  },
  "1262": {
    "city": "Eysins",
    "canton": "VD",
    "lat": 46.38158,
    "lng": 6.20888
  },
  "1263": {
    "city": "Crassier",
    "canton": "VD",
    "lat": 46.37447,
    "lng": 6.16358
  },
  "1264": {
    "city": "St-Cergue",
    "canton": "VD",
    "lat": 46.44312,
    "lng": 6.14204
  },
  "1265": {
    "city": "La Cure",
    "canton": "VD",
    "lat": 46.45563,
    "lng": 6.0884
  },
  "1266": {
    "city": "Duillier",
    "canton": "VD",
    "lat": 46.40955,
    "lng": 6.23678
  },
  "1267": {
    "city": "Vich-Coinsins",
    "canton": "VD",
    "lat": 46.42561,
    "lng": 6.24256
  },
  "1268": {
    "city": "Burtigny",
    "canton": "VD",
    "lat": 46.46758,
    "lng": 6.25695
  },
  "1269": {
    "city": "Bassins",
    "canton": "VD",
    "lat": 46.46624,
    "lng": 6.23154
  },
  "1270": {
    "city": "Trélex",
    "canton": "VD",
    "lat": 46.41535,
    "lng": 6.20489
  },
  "1271": {
    "city": "Givrins",
    "canton": "VD",
    "lat": 46.42895,
    "lng": 6.20188
  },
  "1272": {
    "city": "Genolier",
    "canton": "VD",
    "lat": 46.435,
    "lng": 6.21792
  },
  "1273": {
    "city": "Arzier-Le Muids",
    "canton": "VD",
    "lat": 46.45393,
    "lng": 6.21972
  },
  "1274": {
    "city": "Signy-Centre",
    "canton": "VD",
    "lat": 46.39749,
    "lng": 6.20583
  },
  "1275": {
    "city": "Chéserex",
    "canton": "VD",
    "lat": 46.40057,
    "lng": 6.17475
  },
  "1276": {
    "city": "Gingins",
    "canton": "VD",
    "lat": 46.42568,
    "lng": 6.15237
  },
  "1277": {
    "city": "Borex",
    "canton": "VD",
    "lat": 46.37865,
    "lng": 6.1775
  },
  "1278": {
    "city": "La Rippe",
    "canton": "VD",
    "lat": 46.38152,
    "lng": 6.15084
  },
  "1279": {
    "city": "Chavannes-de-Bogis",
    "canton": "VD",
    "lat": 46.34353,
    "lng": 6.16215
  },
  "1281": {
    "city": "Russin",
    "canton": "GE",
    "lat": 46.18807,
    "lng": 6.01357
  },
  "1283": {
    "city": "Dardagny",
    "canton": "GE",
    "lat": 46.21052,
    "lng": 5.98829
  },
  "1284": {
    "city": "Chancy",
    "canton": "GE",
    "lat": 46.1495,
    "lng": 5.97272
  },
  "1285": {
    "city": "Athenaz (Avusy)",
    "canton": "GE",
    "lat": 46.15474,
    "lng": 6.0069
  },
  "1286": {
    "city": "Soral",
    "canton": "GE",
    "lat": 46.14442,
    "lng": 6.04375
  },
  "1287": {
    "city": "Laconnex",
    "canton": "GE",
    "lat": 46.15562,
    "lng": 6.03597
  },
  "1288": {
    "city": "Aire-la-Ville",
    "canton": "GE",
    "lat": 46.19056,
    "lng": 6.0429
  },
  "1289": {
    "city": "Genève Services Spéciaux",
    "canton": "GE",
    "lat": 46.19944,
    "lng": 6.14512
  },
  "1290": {
    "city": "Versoix",
    "canton": "GE",
    "lat": 46.28769,
    "lng": 6.16578
  },
  "1291": {
    "city": "Commugny",
    "canton": "VD",
    "lat": 46.3187,
    "lng": 6.17746
  },
  "1292": {
    "city": "Chambésy",
    "canton": "GE",
    "lat": 46.23418,
    "lng": 6.13933
  },
  "1293": {
    "city": "Bellevue",
    "canton": "GE",
    "lat": 46.26089,
    "lng": 6.14312
  },
  "1294": {
    "city": "Genthod",
    "canton": "GE",
    "lat": 46.27075,
    "lng": 6.15879
  },
  "1295": {
    "city": "Tannay",
    "canton": "VD",
    "lat": 46.30739,
    "lng": 6.15775
  },
  "1296": {
    "city": "Coppet",
    "canton": "VD",
    "lat": 46.32238,
    "lng": 6.19189
  },
  "1297": {
    "city": "Founex",
    "canton": "VD",
    "lat": 46.33726,
    "lng": 6.18388
  },
  "1298": {
    "city": "Céligny",
    "canton": "GE",
    "lat": 46.35376,
    "lng": 6.19027
  },
  "1299": {
    "city": "Crans-près-Céligny",
    "canton": "VD",
    "lat": 46.36491,
    "lng": 6.20676
  },
  "1302": {
    "city": "Vufflens-la-Ville",
    "canton": "VD",
    "lat": 46.5788,
    "lng": 6.53942
  },
  "1303": {
    "city": "Penthaz",
    "canton": "VD",
    "lat": 46.59931,
    "lng": 6.53925
  },
  "1304": {
    "city": "Senarclens",
    "canton": "VD",
    "lat": 46.60037,
    "lng": 6.48697
  },
  "1305": {
    "city": "Penthalaz",
    "canton": "VD",
    "lat": 46.6098,
    "lng": 6.52544
  },
  "1306": {
    "city": "Daillens",
    "canton": "VD",
    "lat": 46.62052,
    "lng": 6.54852
  },
  "1307": {
    "city": "Lussery-Villars",
    "canton": "VD",
    "lat": 46.63047,
    "lng": 6.52492
  },
  "1308": {
    "city": "La Chaux (Cossonay)",
    "canton": "VD",
    "lat": 46.61804,
    "lng": 6.47558
  },
  "1312": {
    "city": "Eclépens",
    "canton": "VD",
    "lat": 46.65252,
    "lng": 6.52967
  },
  "1313": {
    "city": "Ferreyres",
    "canton": "VD",
    "lat": 46.65834,
    "lng": 6.48562
  },
  "1315": {
    "city": "La Sarraz",
    "canton": "VD",
    "lat": 46.65823,
    "lng": 6.51268
  },
  "1316": {
    "city": "Chevilly",
    "canton": "VD",
    "lat": 46.64252,
    "lng": 6.47683
  },
  "1317": {
    "city": "Orny",
    "canton": "VD",
    "lat": 46.66738,
    "lng": 6.52606
  },
  "1318": {
    "city": "Pompaples",
    "canton": "VD",
    "lat": 46.66699,
    "lng": 6.50386
  },
  "1321": {
    "city": "Arnex-sur-Orbe",
    "canton": "VD",
    "lat": 46.69389,
    "lng": 6.51875
  },
  "1322": {
    "city": "Croy",
    "canton": "VD",
    "lat": 46.69403,
    "lng": 6.47716
  },
  "1323": {
    "city": "Romainmôtier",
    "canton": "VD",
    "lat": 46.68917,
    "lng": 6.46034
  },
  "1324": {
    "city": "Premier",
    "canton": "VD",
    "lat": 46.70442,
    "lng": 6.44458
  },
  "1325": {
    "city": "Vaulion",
    "canton": "VD",
    "lat": 46.6879,
    "lng": 6.38894
  },
  "1326": {
    "city": "Juriens",
    "canton": "VD",
    "lat": 46.69138,
    "lng": 6.44867
  },
  "1329": {
    "city": "Bretonnières",
    "canton": "VD",
    "lat": 46.71209,
    "lng": 6.47432
  },
  "1337": {
    "city": "Vallorbe",
    "canton": "VD",
    "lat": 46.712,
    "lng": 6.37911
  },
  "1338": {
    "city": "Ballaigues",
    "canton": "VD",
    "lat": 46.72969,
    "lng": 6.41592
  },
  "1341": {
    "city": "Orient",
    "canton": "VD",
    "lat": 46.59106,
    "lng": 6.26473
  },
  "1342": {
    "city": "Le Pont",
    "canton": "VD",
    "lat": 46.66862,
    "lng": 6.32828
  },
  "1343": {
    "city": "Les Charbonnières",
    "canton": "VD",
    "lat": 46.6663,
    "lng": 6.31514
  },
  "1344": {
    "city": "L'Abbaye",
    "canton": "VD",
    "lat": 46.63642,
    "lng": 6.3202
  },
  "1345": {
    "city": "Le Lieu",
    "canton": "VD",
    "lat": 46.63156,
    "lng": 6.26103
  },
  "1346": {
    "city": "Les Bioux",
    "canton": "VD",
    "lat": 46.6299,
    "lng": 6.28764
  },
  "1347": {
    "city": "Le Solliat",
    "canton": "VD",
    "lat": 46.61983,
    "lng": 6.23476
  },
  "1348": {
    "city": "Le Brassus",
    "canton": "VD",
    "lat": 46.5668,
    "lng": 6.23005
  },
  "1350": {
    "city": "Orbe",
    "canton": "VD",
    "lat": 46.72933,
    "lng": 6.53236
  },
  "1352": {
    "city": "Agiez",
    "canton": "VD",
    "lat": 46.72013,
    "lng": 6.50975
  },
  "1353": {
    "city": "Bofflens",
    "canton": "VD",
    "lat": 46.70507,
    "lng": 6.49824
  },
  "1354": {
    "city": "Montcherand",
    "canton": "VD",
    "lat": 46.73381,
    "lng": 6.50864
  },
  "1355": {
    "city": "Sergey",
    "canton": "VD",
    "lat": 46.75062,
    "lng": 6.49966
  },
  "1356": {
    "city": "Les Clées",
    "canton": "VD",
    "lat": 46.73165,
    "lng": 6.46281
  },
  "1357": {
    "city": "Lignerolle",
    "canton": "VD",
    "lat": 46.73996,
    "lng": 6.45655
  },
  "1358": {
    "city": "Valeyres-sous-Rances",
    "canton": "VD",
    "lat": 46.75335,
    "lng": 6.52579
  },
  "1372": {
    "city": "Bavois",
    "canton": "VD",
    "lat": 46.68602,
    "lng": 6.56537
  },
  "1373": {
    "city": "Chavornay",
    "canton": "VD",
    "lat": 46.70881,
    "lng": 6.57077
  },
  "1374": {
    "city": "Corcelles-sur-Chavornay",
    "canton": "VD",
    "lat": 46.70295,
    "lng": 6.59965
  },
  "1375": {
    "city": "Penthéréaz",
    "canton": "VD",
    "lat": 46.6818,
    "lng": 6.60373
  },
  "1376": {
    "city": "Goumoens-le-Jux",
    "canton": "VD",
    "lat": 46.66573,
    "lng": 6.58753
  },
  "1377": {
    "city": "Oulens-sous-Echallens",
    "canton": "VD",
    "lat": 46.64194,
    "lng": 6.57707
  },
  "1400": {
    "city": "Yverdon-les-Bains",
    "canton": "VD",
    "lat": 46.77847,
    "lng": 6.64118
  },
  "1401": {
    "city": "Yverdon-les-Bains",
    "canton": "VD",
    "lat": 46.76507,
    "lng": 6.616
  },
  "1404": {
    "city": "Villars-Epeney",
    "canton": "VD",
    "lat": 46.78098,
    "lng": 6.69669
  },
  "1405": {
    "city": "Pomy",
    "canton": "VD",
    "lat": 46.76013,
    "lng": 6.66792
  },
  "1406": {
    "city": "Cronay",
    "canton": "VD",
    "lat": 46.7572,
    "lng": 6.69682
  },
  "1407": {
    "city": "Mézery-près-Donneloye",
    "canton": "VD",
    "lat": 46.74902,
    "lng": 6.72721
  },
  "1408": {
    "city": "Prahins",
    "canton": "VD",
    "lat": 46.73444,
    "lng": 6.74043
  },
  "1409": {
    "city": "Chanéaz",
    "canton": "VD",
    "lat": 46.72967,
    "lng": 6.74261
  },
  "1410": {
    "city": "Thierrens",
    "canton": "VD",
    "lat": 46.70408,
    "lng": 6.75384
  },
  "1412": {
    "city": "Valeyres-sous-Ursins",
    "canton": "VD",
    "lat": 46.7463,
    "lng": 6.65558
  },
  "1413": {
    "city": "Orzens",
    "canton": "VD",
    "lat": 46.72413,
    "lng": 6.68391
  },
  "1415": {
    "city": "Molondin",
    "canton": "VD",
    "lat": 46.76033,
    "lng": 6.74906
  },
  "1416": {
    "city": "Pailly",
    "canton": "VD",
    "lat": 46.70033,
    "lng": 6.67429
  },
  "1417": {
    "city": "Essertines-sur-Yverdon",
    "canton": "VD",
    "lat": 46.71651,
    "lng": 6.65369
  },
  "1418": {
    "city": "Vuarrens",
    "canton": "VD",
    "lat": 46.68609,
    "lng": 6.6473
  },
  "1420": {
    "city": "Fiez",
    "canton": "VD",
    "lat": 46.82695,
    "lng": 6.62358
  },
  "1421": {
    "city": "Grandevent",
    "canton": "VD",
    "lat": 46.83857,
    "lng": 6.60676
  },
  "1422": {
    "city": "Grandson",
    "canton": "VD",
    "lat": 46.79819,
    "lng": 6.62814
  },
  "1423": {
    "city": "Villars-Burquin",
    "canton": "VD",
    "lat": 46.84724,
    "lng": 6.62936
  },
  "1424": {
    "city": "Champagne",
    "canton": "VD",
    "lat": 46.83086,
    "lng": 6.6583
  },
  "1425": {
    "city": "Onnens VD",
    "canton": "VD",
    "lat": 46.83965,
    "lng": 6.68661
  },
  "1426": {
    "city": "Corcelles-près-Concise",
    "canton": "VD",
    "lat": 46.84647,
    "lng": 6.70594
  },
  "1427": {
    "city": "Bonvillars",
    "canton": "VD",
    "lat": 46.84242,
    "lng": 6.66789
  },
  "1428": {
    "city": "Provence",
    "canton": "VD",
    "lat": 46.88754,
    "lng": 6.68714
  },
  "1429": {
    "city": "Giez",
    "canton": "VD",
    "lat": 46.81201,
    "lng": 6.6183
  },
  "1430": {
    "city": "Orges",
    "canton": "VD",
    "lat": 46.80801,
    "lng": 6.58836
  },
  "1431": {
    "city": "Vugelles-La Mothe",
    "canton": "VD",
    "lat": 46.81894,
    "lng": 6.56813
  },
  "1432": {
    "city": "Belmont-sur-Yverdon",
    "canton": "VD",
    "lat": 46.71922,
    "lng": 6.62837
  },
  "1433": {
    "city": "Suchy",
    "canton": "VD",
    "lat": 46.72283,
    "lng": 6.59896
  },
  "1434": {
    "city": "Ependes VD",
    "canton": "VD",
    "lat": 46.74281,
    "lng": 6.60815
  },
  "1435": {
    "city": "Essert-Pittet",
    "canton": "VD",
    "lat": 46.72782,
    "lng": 6.58353
  },
  "1436": {
    "city": "Treycovagnes",
    "canton": "VD",
    "lat": 46.77393,
    "lng": 6.60921
  },
  "1437": {
    "city": "Suscévaz",
    "canton": "VD",
    "lat": 46.76418,
    "lng": 6.578
  },
  "1438": {
    "city": "Mathod",
    "canton": "VD",
    "lat": 46.76743,
    "lng": 6.56563
  },
  "1439": {
    "city": "Rances",
    "canton": "VD",
    "lat": 46.7602,
    "lng": 6.52997
  },
  "1440": {
    "city": "Montagny-Chamard",
    "canton": "VD",
    "lat": 46.79089,
    "lng": 6.62049
  },
  "1441": {
    "city": "Valeyres-sous-Montagny",
    "canton": "VD",
    "lat": 46.79893,
    "lng": 6.60884
  },
  "1442": {
    "city": "Montagny-près-Yverdon",
    "canton": "VD",
    "lat": 46.79228,
    "lng": 6.61013
  },
  "1443": {
    "city": "Villars-sous-Champvent",
    "canton": "VD",
    "lat": 46.78638,
    "lng": 6.58323
  },
  "1445": {
    "city": "Vuiteboeuf",
    "canton": "VD",
    "lat": 46.80514,
    "lng": 6.55561
  },
  "1446": {
    "city": "Baulmes",
    "canton": "VD",
    "lat": 46.78952,
    "lng": 6.52174
  },
  "1450": {
    "city": "Ste-Croix",
    "canton": "VD",
    "lat": 46.81989,
    "lng": 6.51016
  },
  "1452": {
    "city": "Les Rasses",
    "canton": "VD",
    "lat": 46.82945,
    "lng": 6.53962
  },
  "1453": {
    "city": "Mauborget",
    "canton": "VD",
    "lat": 46.85584,
    "lng": 6.61634
  },
  "1454": {
    "city": "La Vraconnaz",
    "canton": "VD",
    "lat": 46.84161,
    "lng": 6.48239
  },
  "1462": {
    "city": "Yvonand",
    "canton": "VD",
    "lat": 46.79948,
    "lng": 6.74555
  },
  "1463": {
    "city": "Rovray",
    "canton": "VD",
    "lat": 46.78476,
    "lng": 6.76457
  },
  "1464": {
    "city": "Chavannes-le-Chêne",
    "canton": "VD",
    "lat": 46.77692,
    "lng": 6.77789
  },
  "1468": {
    "city": "Cheyres",
    "canton": "FR",
    "lat": 46.81106,
    "lng": 6.78744
  },
  "1470": {
    "city": "Seiry",
    "canton": "FR",
    "lat": 46.81323,
    "lng": 6.83179
  },
  "1473": {
    "city": "Font",
    "canton": "FR",
    "lat": 46.83301,
    "lng": 6.82736
  },
  "1474": {
    "city": "Châbles FR",
    "canton": "FR",
    "lat": 46.82186,
    "lng": 6.81024
  },
  "1475": {
    "city": "Montbrelloz",
    "canton": "FR",
    "lat": 46.87534,
    "lng": 6.89259
  },
  "1482": {
    "city": "Cugy FR",
    "canton": "FR",
    "lat": 46.8068,
    "lng": 6.89915
  },
  "1483": {
    "city": "Vesin",
    "canton": "FR",
    "lat": 46.81845,
    "lng": 6.86725
  },
  "1484": {
    "city": "Granges-de-Vesin",
    "canton": "FR",
    "lat": 46.79739,
    "lng": 6.85349
  },
  "1485": {
    "city": "Nuvilly",
    "canton": "FR",
    "lat": 46.78234,
    "lng": 6.83308
  },
  "1486": {
    "city": "Vuissens",
    "canton": "FR",
    "lat": 46.73704,
    "lng": 6.76496
  },
  "1489": {
    "city": "Murist",
    "canton": "FR",
    "lat": 46.79031,
    "lng": 6.80684
  },
  "1509": {
    "city": "Vucherens",
    "canton": "VD",
    "lat": 46.62489,
    "lng": 6.7799
  },
  "1510": {
    "city": "Syens",
    "canton": "VD",
    "lat": 46.64515,
    "lng": 6.77854
  },
  "1512": {
    "city": "Chavannes-sur-Moudon",
    "canton": "VD",
    "lat": 46.6569,
    "lng": 6.80836
  },
  "1513": {
    "city": "Rossenges",
    "canton": "VD",
    "lat": 46.65209,
    "lng": 6.7761
  },
  "1514": {
    "city": "Bussy-sur-Moudon",
    "canton": "VD",
    "lat": 46.6867,
    "lng": 6.81138
  },
  "1515": {
    "city": "Villars-le-Comte",
    "canton": "VD",
    "lat": 46.70947,
    "lng": 6.79825
  },
  "1521": {
    "city": "Curtilles",
    "canton": "VD",
    "lat": 46.69918,
    "lng": 6.84953
  },
  "1522": {
    "city": "Oulens-sur-Lucens",
    "canton": "VD",
    "lat": 46.70479,
    "lng": 6.8086
  },
  "1523": {
    "city": "Granges-près-Marnand",
    "canton": "VD",
    "lat": 46.76336,
    "lng": 6.88765
  },
  "1524": {
    "city": "Marnand",
    "canton": "VD",
    "lat": 46.7558,
    "lng": 6.90078
  },
  "1525": {
    "city": "Henniez",
    "canton": "VD",
    "lat": 46.72839,
    "lng": 6.86815
  },
  "1526": {
    "city": "Forel-sur-Lucens",
    "canton": "VD",
    "lat": 46.72713,
    "lng": 6.82421
  },
  "1527": {
    "city": "Villeneuve FR",
    "canton": "FR",
    "lat": 46.74648,
    "lng": 6.86866
  },
  "1528": {
    "city": "Surpierre",
    "canton": "FR",
    "lat": 46.74664,
    "lng": 6.85867
  },
  "1529": {
    "city": "Cheiry",
    "canton": "FR",
    "lat": 46.76045,
    "lng": 6.85577
  },
  "1530": {
    "city": "Payerne",
    "canton": "VD",
    "lat": 46.83419,
    "lng": 6.92897
  },
  "1532": {
    "city": "Fétigny",
    "canton": "FR",
    "lat": 46.79884,
    "lng": 6.91643
  },
  "1533": {
    "city": "Ménières",
    "canton": "FR",
    "lat": 46.78349,
    "lng": 6.88061
  },
  "1534": {
    "city": "Sassel",
    "canton": "VD",
    "lat": 46.7759,
    "lng": 6.85872
  },
  "1535": {
    "city": "Combremont-le-Grand",
    "canton": "VD",
    "lat": 46.76298,
    "lng": 6.81924
  },
  "1536": {
    "city": "Combremont-le-Petit",
    "canton": "VD",
    "lat": 46.7494,
    "lng": 6.80999
  },
  "1537": {
    "city": "Champtauroz",
    "canton": "VD",
    "lat": 46.76029,
    "lng": 6.78762
  },
  "1538": {
    "city": "Treytorrens (Payerne)",
    "canton": "VD",
    "lat": 46.77162,
    "lng": 6.79998
  },
  "1541": {
    "city": "Sévaz",
    "canton": "FR",
    "lat": 46.83816,
    "lng": 6.87561
  },
  "1542": {
    "city": "Rueyres-les-Prés",
    "canton": "FR",
    "lat": 46.85974,
    "lng": 6.91655
  },
  "1543": {
    "city": "Grandcour",
    "canton": "VD",
    "lat": 46.8709,
    "lng": 6.94685
  },
  "1544": {
    "city": "Gletterens",
    "canton": "FR",
    "lat": 46.8995,
    "lng": 6.93618
  },
  "1545": {
    "city": "Chevroux",
    "canton": "VD",
    "lat": 46.89128,
    "lng": 6.91096
  },
  "1551": {
    "city": "Vers-chez-Perrin",
    "canton": "VD",
    "lat": 46.79662,
    "lng": 6.94292
  },
  "1552": {
    "city": "Trey",
    "canton": "VD",
    "lat": 46.77013,
    "lng": 6.9261
  },
  "1553": {
    "city": "Châtonnaye",
    "canton": "FR",
    "lat": 46.75419,
    "lng": 6.93898
  },
  "1554": {
    "city": "Sédeilles",
    "canton": "VD",
    "lat": 46.74942,
    "lng": 6.9325
  },
  "1555": {
    "city": "Villarzel",
    "canton": "VD",
    "lat": 46.74537,
    "lng": 6.91026
  },
  "1562": {
    "city": "Corcelles-près-Payerne",
    "canton": "VD",
    "lat": 46.83094,
    "lng": 6.96227
  },
  "1563": {
    "city": "Dompierre FR",
    "canton": "FR",
    "lat": 46.85209,
    "lng": 6.99075
  },
  "1564": {
    "city": "Domdidier",
    "canton": "FR",
    "lat": 46.86706,
    "lng": 7.01354
  },
  "1565": {
    "city": "Vallon",
    "canton": "FR",
    "lat": 46.88504,
    "lng": 6.95344
  },
  "1566": {
    "city": "St-Aubin FR",
    "canton": "FR",
    "lat": 46.88975,
    "lng": 6.98062
  },
  "1567": {
    "city": "Delley",
    "canton": "FR",
    "lat": 46.91336,
    "lng": 6.96769
  },
  "1568": {
    "city": "Portalban",
    "canton": "FR",
    "lat": 46.91404,
    "lng": 6.95501
  },
  "1580": {
    "city": "Oleyres",
    "canton": "VD",
    "lat": 46.85567,
    "lng": 7.03719
  },
  "1583": {
    "city": "Villarepos",
    "canton": "FR",
    "lat": 46.88327,
    "lng": 7.07186
  },
  "1584": {
    "city": "Villars-le-Grand",
    "canton": "VD",
    "lat": 46.90829,
    "lng": 6.99502
  },
  "1585": {
    "city": "Salavaux",
    "canton": "VD",
    "lat": 46.91836,
    "lng": 7.02234
  },
  "1586": {
    "city": "Vallamand",
    "canton": "VD",
    "lat": 46.93092,
    "lng": 7.03641
  },
  "1587": {
    "city": "Montmagny",
    "canton": "VD",
    "lat": 46.92625,
    "lng": 7.01087
  },
  "1588": {
    "city": "Cudrefin",
    "canton": "VD",
    "lat": 46.94911,
    "lng": 7.02816
  },
  "1589": {
    "city": "Chabrey",
    "canton": "VD",
    "lat": 46.9281,
    "lng": 6.98678
  },
  "1595": {
    "city": "Faoug",
    "canton": "VD",
    "lat": 46.90067,
    "lng": 7.07607
  },
  "1607": {
    "city": "Palézieux-Village",
    "canton": "VD",
    "lat": 46.56243,
    "lng": 6.8377
  },
  "1608": {
    "city": "Oron-le-Châtel",
    "canton": "VD",
    "lat": 46.57532,
    "lng": 6.83979
  },
  "1609": {
    "city": "St-Martin FR",
    "canton": "FR",
    "lat": 46.57672,
    "lng": 6.86882
  },
  "1610": {
    "city": "Vuibroye",
    "canton": "VD",
    "lat": 46.57194,
    "lng": 6.80534
  },
  "1611": {
    "city": "Le Crêt-près-Semsales",
    "canton": "FR",
    "lat": 46.61131,
    "lng": 6.92094
  },
  "1612": {
    "city": "Ecoteaux",
    "canton": "VD",
    "lat": 46.54573,
    "lng": 6.86271
  },
  "1613": {
    "city": "Maracon",
    "canton": "VD",
    "lat": 46.55129,
    "lng": 6.87208
  },
  "1614": {
    "city": "Granges (Veveyse)",
    "canton": "FR",
    "lat": 46.52466,
    "lng": 6.82947
  },
  "1615": {
    "city": "Bossonnens",
    "canton": "FR",
    "lat": 46.52586,
    "lng": 6.85234
  },
  "1616": {
    "city": "Attalens",
    "canton": "FR",
    "lat": 46.51699,
    "lng": 6.86403
  },
  "1617": {
    "city": "Tatroz",
    "canton": "FR",
    "lat": 46.53633,
    "lng": 6.87978
  },
  "1618": {
    "city": "Châtel-St-Denis",
    "canton": "FR",
    "lat": 46.54301,
    "lng": 6.91415
  },
  "1619": {
    "city": "Les Paccots",
    "canton": "FR",
    "lat": 46.52171,
    "lng": 6.94792
  },
  "1623": {
    "city": "Semsales",
    "canton": "FR",
    "lat": 46.56526,
    "lng": 6.96149
  },
  "1624": {
    "city": "Progens",
    "canton": "FR",
    "lat": 46.59152,
    "lng": 6.92763
  },
  "1625": {
    "city": "Sâles (Gruyère)",
    "canton": "FR",
    "lat": 46.63411,
    "lng": 6.96938
  },
  "1626": {
    "city": "Treyfayes",
    "canton": "FR",
    "lat": 46.65402,
    "lng": 6.9535
  },
  "1627": {
    "city": "Vaulruz",
    "canton": "FR",
    "lat": 46.62059,
    "lng": 6.98918
  },
  "1628": {
    "city": "Vuadens",
    "canton": "FR",
    "lat": 46.61803,
    "lng": 7.025
  },
  "1630": {
    "city": "Bulle 2",
    "canton": "FR",
    "lat": 46.61356,
    "lng": 7.05995
  },
  "1632": {
    "city": "Riaz",
    "canton": "FR",
    "lat": 46.64151,
    "lng": 7.06237
  },
  "1633": {
    "city": "Vuippens",
    "canton": "FR",
    "lat": 46.65946,
    "lng": 7.04521
  },
  "1634": {
    "city": "La Roche FR",
    "canton": "FR",
    "lat": 46.69704,
    "lng": 7.13831
  },
  "1635": {
    "city": "La Tour-de-Trême",
    "canton": "FR",
    "lat": 46.60833,
    "lng": 7.06667
  },
  "1636": {
    "city": "Broc",
    "canton": "FR",
    "lat": 46.60421,
    "lng": 7.09749
  },
  "1637": {
    "city": "Charmey (Gruyère)",
    "canton": "FR",
    "lat": 46.62073,
    "lng": 7.1655
  },
  "1638": {
    "city": "Morlon",
    "canton": "FR",
    "lat": 46.62491,
    "lng": 7.08492
  },
  "1642": {
    "city": "Sorens",
    "canton": "FR",
    "lat": 46.66919,
    "lng": 7.05862
  },
  "1643": {
    "city": "Gumefens",
    "canton": "FR",
    "lat": 46.67716,
    "lng": 7.07273
  },
  "1644": {
    "city": "Avry-devant-Pont",
    "canton": "FR",
    "lat": 46.68559,
    "lng": 7.08689
  },
  "1645": {
    "city": "Le Bry",
    "canton": "FR",
    "lat": 46.69611,
    "lng": 7.0755
  },
  "1646": {
    "city": "Echarlens",
    "canton": "FR",
    "lat": 46.64744,
    "lng": 7.08268
  },
  "1647": {
    "city": "Corbières",
    "canton": "FR",
    "lat": 46.65487,
    "lng": 7.11924
  },
  "1648": {
    "city": "Hauteville",
    "canton": "FR",
    "lat": 46.66627,
    "lng": 7.13078
  },
  "1649": {
    "city": "Pont-la-Ville",
    "canton": "FR",
    "lat": 46.70372,
    "lng": 7.11409
  },
  "1651": {
    "city": "Villarvolard",
    "canton": "FR",
    "lat": 46.646,
    "lng": 7.10711
  },
  "1652": {
    "city": "Villarbeney",
    "canton": "FR",
    "lat": 46.62586,
    "lng": 7.11777
  },
  "1653": {
    "city": "Crésuz",
    "canton": "FR",
    "lat": 46.62123,
    "lng": 7.14199
  },
  "1654": {
    "city": "Cerniat FR",
    "canton": "FR",
    "lat": 46.65092,
    "lng": 7.18934
  },
  "1656": {
    "city": "Jaun",
    "canton": "FR",
    "lat": 46.60406,
    "lng": 7.27144
  },
  "1657": {
    "city": "Abländschen",
    "canton": "BE",
    "lat": 46.5696,
    "lng": 7.28
  },
  "1658": {
    "city": "Rossinière",
    "canton": "VD",
    "lat": 46.4671,
    "lng": 7.08284
  },
  "1659": {
    "city": "Rougemont",
    "canton": "VD",
    "lat": 46.48914,
    "lng": 7.20892
  },
  "1660": {
    "city": "Les Moulins",
    "canton": "VD",
    "lat": 46.46177,
    "lng": 7.10785
  },
  "1661": {
    "city": "Le Pâquier-Montbarry",
    "canton": "FR",
    "lat": 46.58446,
    "lng": 7.0605
  },
  "1663": {
    "city": "Pringy",
    "canton": "FR",
    "lat": 46.58104,
    "lng": 7.07239
  },
  "1665": {
    "city": "Estavannens",
    "canton": "FR",
    "lat": 46.56504,
    "lng": 7.10305
  },
  "1666": {
    "city": "Villars-sous-Mont",
    "canton": "FR",
    "lat": 46.54087,
    "lng": 7.07016
  },
  "1667": {
    "city": "Enney",
    "canton": "FR",
    "lat": 46.55387,
    "lng": 7.06808
  },
  "1669": {
    "city": "Neirivue",
    "canton": "FR",
    "lat": 46.52642,
    "lng": 7.05989
  },
  "1670": {
    "city": "Ursy",
    "canton": "FR",
    "lat": 46.63775,
    "lng": 6.84391
  },
  "1673": {
    "city": "Ecublens FR",
    "canton": "FR",
    "lat": 46.63334,
    "lng": 6.8
  },
  "1674": {
    "city": "Vuarmarens",
    "canton": "FR",
    "lat": 46.64452,
    "lng": 6.82696
  },
  "1675": {
    "city": "Vauderens",
    "canton": "FR",
    "lat": 46.62274,
    "lng": 6.85078
  },
  "1676": {
    "city": "Chavannes-les-Forts",
    "canton": "FR",
    "lat": 46.65,
    "lng": 6.9
  },
  "1677": {
    "city": "Prez-vers-Siviriez",
    "canton": "FR",
    "lat": 46.63334,
    "lng": 6.86667
  },
  "1678": {
    "city": "Siviriez",
    "canton": "FR",
    "lat": 46.66667,
    "lng": 6.88333
  },
  "1679": {
    "city": "Villaraboud",
    "canton": "FR",
    "lat": 46.6594,
    "lng": 6.91262
  },
  "1680": {
    "city": "Romont FR",
    "canton": "FR",
    "lat": 46.69189,
    "lng": 6.91181
  },
  "1681": {
    "city": "Hennens",
    "canton": "FR",
    "lat": 46.68308,
    "lng": 6.88456
  },
  "1682": {
    "city": "Villars-Bramard",
    "canton": "VD",
    "lat": 46.71921,
    "lng": 6.89887
  },
  "1683": {
    "city": "Sarzens",
    "canton": "VD",
    "lat": 46.6823,
    "lng": 6.85013
  },
  "1684": {
    "city": "Mézières FR",
    "canton": "FR",
    "lat": 46.67889,
    "lng": 6.92585
  },
  "1685": {
    "city": "Villariaz",
    "canton": "FR",
    "lat": 46.66573,
    "lng": 6.94283
  },
  "1686": {
    "city": "La Neirigue",
    "canton": "FR",
    "lat": 46.68334,
    "lng": 6.95
  },
  "1687": {
    "city": "Vuisternens-devant-Romont",
    "canton": "FR",
    "lat": 46.65328,
    "lng": 6.92921
  },
  "1688": {
    "city": "Sommentier",
    "canton": "FR",
    "lat": 46.63366,
    "lng": 6.91197
  },
  "1689": {
    "city": "Le Châtelard-près-Romont",
    "canton": "FR",
    "lat": 46.67473,
    "lng": 6.99409
  },
  "1690": {
    "city": "Villaz-St-Pierre",
    "canton": "FR",
    "lat": 46.72097,
    "lng": 6.96123
  },
  "1691": {
    "city": "Villarimboud",
    "canton": "FR",
    "lat": 46.74191,
    "lng": 6.96723
  },
  "1692": {
    "city": "Massonnens",
    "canton": "FR",
    "lat": 46.69831,
    "lng": 6.97585
  },
  "1694": {
    "city": "Villarsiviriaux",
    "canton": "FR",
    "lat": 46.69952,
    "lng": 7.01077
  },
  "1695": {
    "city": "Villarsel-le-Gibloux",
    "canton": "FR",
    "lat": 46.71437,
    "lng": 7.01704
  },
  "1696": {
    "city": "Vuisternens-en-Ogoz",
    "canton": "FR",
    "lat": 46.70724,
    "lng": 7.05278
  },
  "1697": {
    "city": "Les Ecasseys",
    "canton": "FR",
    "lat": 46.62172,
    "lng": 6.90995
  },
  "1699": {
    "city": "Porsel",
    "canton": "FR",
    "lat": 46.59974,
    "lng": 6.86495
  },
  "1700": {
    "city": "Fribourg",
    "canton": "FR",
    "lat": 46.8139,
    "lng": 7.17688
  },
  "1701": {
    "city": "Fribourg",
    "canton": "FR",
    "lat": 46.24353,
    "lng": 7.38207
  },
  "1705": {
    "city": "Fribourg",
    "canton": "FR",
    "lat": 46.80141,
    "lng": 7.15152
  },
  "1707": {
    "city": "Fribourg",
    "canton": "FR",
    "lat": 46.81067,
    "lng": 7.17276
  },
  "1708": {
    "city": "Fribourg",
    "canton": "FR",
    "lat": 46.8017,
    "lng": 7.13714
  },
  "1709": {
    "city": "Fribourg",
    "canton": "FR",
    "lat": 46.79577,
    "lng": 7.14044
  },
  "1712": {
    "city": "Tafers",
    "canton": "FR",
    "lat": 46.81533,
    "lng": 7.21575
  },
  "1713": {
    "city": "St. Antoni",
    "canton": "FR",
    "lat": 46.82315,
    "lng": 7.26346
  },
  "1714": {
    "city": "Heitenried",
    "canton": "FR",
    "lat": 46.8413,
    "lng": 7.27615
  },
  "1715": {
    "city": "Alterswil FR",
    "canton": "FR",
    "lat": 46.77914,
    "lng": 7.27881
  },
  "1716": {
    "city": "Schwarzsee",
    "canton": "FR",
    "lat": 46.71645,
    "lng": 7.30856
  },
  "1717": {
    "city": "St. Ursen",
    "canton": "FR",
    "lat": 46.79001,
    "lng": 7.21811
  },
  "1718": {
    "city": "Rechthalten",
    "canton": "FR",
    "lat": 46.76783,
    "lng": 7.24066
  },
  "1719": {
    "city": "Zumholz",
    "canton": "FR",
    "lat": 46.75397,
    "lng": 7.29234
  },
  "1720": {
    "city": "Corminboeuf",
    "canton": "FR",
    "lat": 46.81116,
    "lng": 7.1059
  },
  "1721": {
    "city": "Misery-Courtion",
    "canton": "FR",
    "lat": 46.85455,
    "lng": 7.07333
  },
  "1722": {
    "city": "Bourguillon",
    "canton": "FR",
    "lat": 46.79479,
    "lng": 7.18971
  },
  "1723": {
    "city": "Villarsel-sur-Marly",
    "canton": "FR",
    "lat": 46.76003,
    "lng": 7.17412
  },
  "1724": {
    "city": "Zénauva",
    "canton": "FR",
    "lat": 46.73526,
    "lng": 7.18174
  },
  "1725": {
    "city": "Posieux",
    "canton": "FR",
    "lat": 46.76108,
    "lng": 7.09605
  },
  "1726": {
    "city": "Posat",
    "canton": "FR",
    "lat": 46.7286,
    "lng": 7.06525
  },
  "1727": {
    "city": "Magnedens",
    "canton": "FR",
    "lat": 46.74275,
    "lng": 7.08127
  },
  "1728": {
    "city": "Rossens FR",
    "canton": "FR",
    "lat": 46.72056,
    "lng": 7.10418
  },
  "1730": {
    "city": "Ecuvillens",
    "canton": "FR",
    "lat": 46.75731,
    "lng": 7.07238
  },
  "1731": {
    "city": "Ependes FR",
    "canton": "FR",
    "lat": 46.75942,
    "lng": 7.15337
  },
  "1732": {
    "city": "Arconciel",
    "canton": "FR",
    "lat": 46.74419,
    "lng": 7.12712
  },
  "1733": {
    "city": "Treyvaux",
    "canton": "FR",
    "lat": 46.72725,
    "lng": 7.13734
  },
  "1734": {
    "city": "Tentlingen",
    "canton": "FR",
    "lat": 46.76888,
    "lng": 7.19878
  },
  "1735": {
    "city": "Giffers",
    "canton": "FR",
    "lat": 46.76155,
    "lng": 7.21003
  },
  "1736": {
    "city": "St. Silvester",
    "canton": "FR",
    "lat": 46.74043,
    "lng": 7.22053
  },
  "1737": {
    "city": "Plasselb",
    "canton": "FR",
    "lat": 46.7353,
    "lng": 7.25047
  },
  "1738": {
    "city": "Sangernboden",
    "canton": "BE",
    "lat": 46.72614,
    "lng": 7.44159
  },
  "1740": {
    "city": "Neyruz FR",
    "canton": "FR",
    "lat": 46.76025,
    "lng": 7.05088
  },
  "1741": {
    "city": "Cottens FR",
    "canton": "FR",
    "lat": 46.75316,
    "lng": 7.0329
  },
  "1742": {
    "city": "Autigny",
    "canton": "FR",
    "lat": 46.73669,
    "lng": 7.02107
  },
  "1744": {
    "city": "Chénens",
    "canton": "FR",
    "lat": 46.74097,
    "lng": 7.0015
  },
  "1745": {
    "city": "Lentigny",
    "canton": "FR",
    "lat": 46.75838,
    "lng": 7.0036
  },
  "1746": {
    "city": "Prez-vers-Noréaz",
    "canton": "FR",
    "lat": 46.78519,
    "lng": 7.01351
  },
  "1747": {
    "city": "Corserey",
    "canton": "FR",
    "lat": 46.77434,
    "lng": 6.99234
  },
  "1748": {
    "city": "Torny-le-Grand",
    "canton": "FR",
    "lat": 46.77075,
    "lng": 6.96578
  },
  "1749": {
    "city": "Middes",
    "canton": "FR",
    "lat": 46.77843,
    "lng": 6.94748
  },
  "1752": {
    "city": "Villars-sur-Glâne 2",
    "canton": "FR",
    "lat": 46.79448,
    "lng": 7.11541
  },
  "1753": {
    "city": "Matran",
    "canton": "FR",
    "lat": 46.78539,
    "lng": 7.09589
  },
  "1754": {
    "city": "Rosé",
    "canton": "FR",
    "lat": 46.78271,
    "lng": 7.062
  },
  "1756": {
    "city": "Onnens FR",
    "canton": "FR",
    "lat": 46.77539,
    "lng": 7.03874
  },
  "1757": {
    "city": "Noréaz",
    "canton": "FR",
    "lat": 46.79763,
    "lng": 7.048
  },
  "1762": {
    "city": "Givisiez",
    "canton": "FR",
    "lat": 46.81286,
    "lng": 7.13166
  },
  "1763": {
    "city": "Granges-Paccot",
    "canton": "FR",
    "lat": 46.8223,
    "lng": 7.15094
  },
  "1772": {
    "city": "Ponthaux",
    "canton": "FR",
    "lat": 46.81518,
    "lng": 7.04141
  },
  "1773": {
    "city": "Russy",
    "canton": "FR",
    "lat": 46.8415,
    "lng": 7.00168
  },
  "1774": {
    "city": "Montagny-les-Monts",
    "canton": "FR",
    "lat": 46.80835,
    "lng": 6.98964
  },
  "1775": {
    "city": "Mannens",
    "canton": "FR",
    "lat": 46.7938,
    "lng": 6.96893
  },
  "1776": {
    "city": "Montagny-la-Ville",
    "canton": "FR",
    "lat": 46.81746,
    "lng": 6.99512
  },
  "1782": {
    "city": "Lossy",
    "canton": "FR",
    "lat": 46.83324,
    "lng": 7.10291
  },
  "1783": {
    "city": "Pensier",
    "canton": "FR",
    "lat": 46.84413,
    "lng": 7.13531
  },
  "1784": {
    "city": "Wallenried",
    "canton": "FR",
    "lat": 46.87357,
    "lng": 7.1158
  },
  "1785": {
    "city": "Cressier FR",
    "canton": "FR",
    "lat": 46.89882,
    "lng": 7.14004
  },
  "1786": {
    "city": "Sugiez",
    "canton": "FR",
    "lat": 46.96186,
    "lng": 7.11292
  },
  "1787": {
    "city": "Mur (Vully) VD",
    "canton": "VD",
    "lat": 46.94566,
    "lng": 7.05811
  },
  "1788": {
    "city": "Praz (Vully)",
    "canton": "FR",
    "lat": 46.95434,
    "lng": 7.10007
  },
  "1789": {
    "city": "Lugnorre",
    "canton": "FR",
    "lat": 46.94972,
    "lng": 7.07402
  },
  "1791": {
    "city": "Courtaman",
    "canton": "FR",
    "lat": 46.87054,
    "lng": 7.12896
  },
  "1792": {
    "city": "Cordast",
    "canton": "FR",
    "lat": 46.88776,
    "lng": 7.14631
  },
  "1793": {
    "city": "Jeuss",
    "canton": "FR",
    "lat": 46.90397,
    "lng": 7.16257
  },
  "1794": {
    "city": "Salvenach",
    "canton": "FR",
    "lat": 46.9113,
    "lng": 7.15121
  },
  "1795": {
    "city": "Courlevon",
    "canton": "FR",
    "lat": 46.89503,
    "lng": 7.11932
  },
  "1796": {
    "city": "Courgevaux",
    "canton": "FR",
    "lat": 46.90369,
    "lng": 7.10596
  },
  "1797": {
    "city": "Münchenwiler",
    "canton": "BE",
    "lat": 46.91199,
    "lng": 7.12602
  },
  "1800": {
    "city": "Vevey 1",
    "canton": "VD",
    "lat": 46.45825,
    "lng": 6.84512
  },
  "1801": {
    "city": "Le Mont-Pèlerin",
    "canton": "VD",
    "lat": 46.49138,
    "lng": 6.82312
  },
  "1802": {
    "city": "Corseaux",
    "canton": "VD",
    "lat": 46.47055,
    "lng": 6.82813
  },
  "1803": {
    "city": "Chardonne",
    "canton": "VD",
    "lat": 46.47521,
    "lng": 6.81066
  },
  "1804": {
    "city": "Corsier-sur-Vevey",
    "canton": "VD",
    "lat": 46.47651,
    "lng": 6.84959
  },
  "1805": {
    "city": "Jongny",
    "canton": "VD",
    "lat": 46.48265,
    "lng": 6.84708
  },
  "1806": {
    "city": "St-Légier-La Chiésaz",
    "canton": "VD",
    "lat": 46.47172,
    "lng": 6.87677
  },
  "1807": {
    "city": "Blonay",
    "canton": "VD",
    "lat": 46.48209,
    "lng": 6.90916
  },
  "1808": {
    "city": "Les Monts-de-Corsier",
    "canton": "VD",
    "lat": 46.49898,
    "lng": 6.88015
  },
  "1809": {
    "city": "Fenil-sur-Corsier",
    "canton": "VD",
    "lat": 46.48519,
    "lng": 6.866
  },
  "1811": {
    "city": "Vevey Services spéciaux",
    "canton": "VD",
    "lat": 46.52279,
    "lng": 6.89878
  },
  "1814": {
    "city": "La Tour-de-Peilz",
    "canton": "VD",
    "lat": 46.45721,
    "lng": 6.86927
  },
  "1815": {
    "city": "Clarens",
    "canton": "VD",
    "lat": 46.44525,
    "lng": 6.89668
  },
  "1816": {
    "city": "Chailly-Montreux",
    "canton": "VD",
    "lat": 46.45237,
    "lng": 6.88956
  },
  "1817": {
    "city": "Brent",
    "canton": "VD",
    "lat": 46.45316,
    "lng": 6.90265
  },
  "1818": {
    "city": "Montreux La Redoute",
    "canton": "VD",
    "lat": 46.55445,
    "lng": 7.37431
  },
  "1820": {
    "city": "Montreux",
    "canton": "VD",
    "lat": 46.44091,
    "lng": 6.91089
  },
  "1822": {
    "city": "Chernex",
    "canton": "VD",
    "lat": 46.43893,
    "lng": 6.92164
  },
  "1823": {
    "city": "Glion",
    "canton": "VD",
    "lat": 46.43216,
    "lng": 6.92556
  },
  "1824": {
    "city": "Caux",
    "canton": "VD",
    "lat": 46.43187,
    "lng": 6.97832
  },
  "1832": {
    "city": "Villard-sur-Chamby",
    "canton": "VD",
    "lat": 46.47132,
    "lng": 6.92896
  },
  "1833": {
    "city": "Les Avants",
    "canton": "VD",
    "lat": 46.4533,
    "lng": 6.9429
  },
  "1844": {
    "city": "Villeneuve VD",
    "canton": "VD",
    "lat": 46.41011,
    "lng": 6.96944
  },
  "1845": {
    "city": "Noville",
    "canton": "VD",
    "lat": 46.3806,
    "lng": 6.89934
  },
  "1846": {
    "city": "Chessel",
    "canton": "VD",
    "lat": 46.34942,
    "lng": 6.89436
  },
  "1847": {
    "city": "Rennaz",
    "canton": "VD",
    "lat": 46.37608,
    "lng": 6.91839
  },
  "1852": {
    "city": "Roche VD",
    "canton": "VD",
    "lat": 46.36033,
    "lng": 6.9315
  },
  "1853": {
    "city": "Yvorne",
    "canton": "VD",
    "lat": 46.32968,
    "lng": 6.94408
  },
  "1854": {
    "city": "Leysin",
    "canton": "VD",
    "lat": 46.34356,
    "lng": 7.01203
  },
  "1856": {
    "city": "Corbeyrier",
    "canton": "VD",
    "lat": 46.34911,
    "lng": 6.95985
  },
  "1860": {
    "city": "Aigle",
    "canton": "VD",
    "lat": 46.31832,
    "lng": 6.98231
  },
  "1862": {
    "city": "La Comballaz",
    "canton": "VD",
    "lat": 46.36356,
    "lng": 7.09462
  },
  "1863": {
    "city": "Le Sépey",
    "canton": "VD",
    "lat": 46.40595,
    "lng": 7.03718
  },
  "1864": {
    "city": "Vers-l'Eglise",
    "canton": "VD",
    "lat": 46.35795,
    "lng": 7.11125
  },
  "1865": {
    "city": "Les Diablerets",
    "canton": "VD",
    "lat": 46.33911,
    "lng": 7.18109
  },
  "1866": {
    "city": "La Forclaz VD",
    "canton": "VD",
    "lat": 46.34036,
    "lng": 7.08394
  },
  "1867": {
    "city": "Ollon VD",
    "canton": "VD",
    "lat": 46.28315,
    "lng": 6.99669
  },
  "1868": {
    "city": "Collombey",
    "canton": "VS",
    "lat": 46.25309,
    "lng": 6.93444
  },
  "1869": {
    "city": "Massongex",
    "canton": "VS",
    "lat": 46.23835,
    "lng": 6.98163
  },
  "1870": {
    "city": "Monthey 2",
    "canton": "VS",
    "lat": 46.25359,
    "lng": 6.94699
  },
  "1871": {
    "city": "Les Giettes",
    "canton": "VS",
    "lat": 46.23278,
    "lng": 6.95464
  },
  "1872": {
    "city": "Troistorrents",
    "canton": "VS",
    "lat": 46.22603,
    "lng": 6.90747
  },
  "1873": {
    "city": "Val-d'Illiez",
    "canton": "VS",
    "lat": 46.20441,
    "lng": 6.89276
  },
  "1874": {
    "city": "Champéry",
    "canton": "VS",
    "lat": 46.17599,
    "lng": 6.83
  },
  "1875": {
    "city": "Morgins",
    "canton": "VS",
    "lat": 46.23624,
    "lng": 6.8532
  },
  "1880": {
    "city": "Les Posses-sur-Bex",
    "canton": "VD",
    "lat": 46.27066,
    "lng": 7.04779
  },
  "1882": {
    "city": "Gryon",
    "canton": "VD",
    "lat": 46.28912,
    "lng": 7.13757
  },
  "1884": {
    "city": "Villars-sur-Ollon",
    "canton": "VD",
    "lat": 46.29854,
    "lng": 7.05527
  },
  "1885": {
    "city": "Chesières",
    "canton": "VD",
    "lat": 46.30084,
    "lng": 7.04284
  },
  "1890": {
    "city": "St-Maurice",
    "canton": "VS",
    "lat": 46.21494,
    "lng": 7.00479
  },
  "1891": {
    "city": "Vérossaz",
    "canton": "VS",
    "lat": 46.21129,
    "lng": 6.9875
  },
  "1892": {
    "city": "Morcles",
    "canton": "VD",
    "lat": 46.20894,
    "lng": 7.03656
  },
  "1893": {
    "city": "Muraz (Collombey)",
    "canton": "VS",
    "lat": 46.27885,
    "lng": 6.92896
  },
  "1895": {
    "city": "Vionnaz",
    "canton": "VS",
    "lat": 46.30393,
    "lng": 6.89219
  },
  "1896": {
    "city": "Vouvry",
    "canton": "VS",
    "lat": 46.33638,
    "lng": 6.89101
  },
  "1897": {
    "city": "Les Evouettes",
    "canton": "VS",
    "lat": 46.3625,
    "lng": 6.87704
  },
  "1898": {
    "city": "St-Gingolph",
    "canton": "VS",
    "lat": 46.36699,
    "lng": 6.80477
  },
  "1899": {
    "city": "Torgon",
    "canton": "VS",
    "lat": 46.31522,
    "lng": 6.87894
  },
  "1902": {
    "city": "Evionnaz",
    "canton": "VS",
    "lat": 46.18304,
    "lng": 7.01411
  },
  "1903": {
    "city": "Collonges",
    "canton": "VS",
    "lat": 46.16978,
    "lng": 7.03323
  },
  "1904": {
    "city": "Vernayaz",
    "canton": "VS",
    "lat": 46.14395,
    "lng": 7.03241
  },
  "1905": {
    "city": "Dorénaz",
    "canton": "VS",
    "lat": 46.14909,
    "lng": 7.04241
  },
  "1906": {
    "city": "Charrat",
    "canton": "VS",
    "lat": 46.12514,
    "lng": 7.13984
  },
  "1907": {
    "city": "Saxon",
    "canton": "VS",
    "lat": 46.143,
    "lng": 7.18699
  },
  "1908": {
    "city": "Riddes",
    "canton": "VS",
    "lat": 46.16801,
    "lng": 7.2237
  },
  "1911": {
    "city": "Ovronnaz",
    "canton": "VS",
    "lat": 46.20643,
    "lng": 7.1477
  },
  "1912": {
    "city": "Produit (Leytron)",
    "canton": "VS",
    "lat": 46.18647,
    "lng": 7.19339
  },
  "1913": {
    "city": "Saillon",
    "canton": "VS",
    "lat": 46.17071,
    "lng": 7.18584
  },
  "1914": {
    "city": "Isérables",
    "canton": "VS",
    "lat": 46.16251,
    "lng": 7.24447
  },
  "1918": {
    "city": "La Tzoumaz",
    "canton": "VS",
    "lat": 46.15219,
    "lng": 7.22699
  },
  "1919": {
    "city": "Martigny Groupe Mutuel",
    "canton": "VS",
    "lat": 46.4667,
    "lng": 7.19554
  },
  "1920": {
    "city": "Martigny 2",
    "canton": "VS",
    "lat": 46.09223,
    "lng": 7.0648
  },
  "1921": {
    "city": "Martigny-Croix",
    "canton": "VS",
    "lat": 46.08816,
    "lng": 7.0518
  },
  "1922": {
    "city": "Salvan",
    "canton": "VS",
    "lat": 46.129,
    "lng": 7.02077
  },
  "1923": {
    "city": "Les Marécottes",
    "canton": "VS",
    "lat": 46.1125,
    "lng": 7.00909
  },
  "1925": {
    "city": "Le Châtelard VS",
    "canton": "VS",
    "lat": 46.05768,
    "lng": 6.9567
  },
  "1926": {
    "city": "Fully",
    "canton": "VS",
    "lat": 46.14939,
    "lng": 7.131
  },
  "1927": {
    "city": "Chemin",
    "canton": "VS",
    "lat": 46.09055,
    "lng": 7.08279
  },
  "1928": {
    "city": "Ravoire",
    "canton": "VS",
    "lat": 46.10061,
    "lng": 7.05746
  },
  "1929": {
    "city": "Trient",
    "canton": "VS",
    "lat": 46.05567,
    "lng": 6.99604
  },
  "1932": {
    "city": "Les Valettes (Bovernier)",
    "canton": "VS",
    "lat": 46.07723,
    "lng": 7.0757
  },
  "1933": {
    "city": "Vens (Sembrancher)",
    "canton": "VS",
    "lat": 46.06763,
    "lng": 7.14137
  },
  "1934": {
    "city": "Le Châble VS",
    "canton": "VS",
    "lat": 46.06871,
    "lng": 7.20468
  },
  "1936": {
    "city": "Verbier",
    "canton": "VS",
    "lat": 46.09973,
    "lng": 7.24061
  },
  "1937": {
    "city": "Orsières",
    "canton": "VS",
    "lat": 46.04247,
    "lng": 7.13919
  },
  "1938": {
    "city": "Champex-Lac",
    "canton": "VS",
    "lat": 46.03635,
    "lng": 7.10514
  },
  "1941": {
    "city": "Vollèges",
    "canton": "VS",
    "lat": 46.0851,
    "lng": 7.16852
  },
  "1942": {
    "city": "Levron",
    "canton": "VS",
    "lat": 46.09897,
    "lng": 7.16415
  },
  "1943": {
    "city": "Praz-de-Fort",
    "canton": "VS",
    "lat": 45.98214,
    "lng": 7.11974
  },
  "1944": {
    "city": "La Fouly VS",
    "canton": "VS",
    "lat": 45.956,
    "lng": 7.10757
  },
  "1945": {
    "city": "Vichères (Liddes)",
    "canton": "VS",
    "lat": 45.99665,
    "lng": 7.16657
  },
  "1946": {
    "city": "Bourg-St-Pierre",
    "canton": "VS",
    "lat": 45.92468,
    "lng": 7.20207
  },
  "1947": {
    "city": "Versegères",
    "canton": "VS",
    "lat": 46.0656,
    "lng": 7.23412
  },
  "1948": {
    "city": "Sarreyer",
    "canton": "VS",
    "lat": 46.06281,
    "lng": 7.24961
  },
  "1950": {
    "city": "Sion 4",
    "canton": "VS",
    "lat": 46.22766,
    "lng": 7.37364
  },
  "1951": {
    "city": "Sion",
    "canton": "VS",
    "lat": 46.24353,
    "lng": 7.38207
  },
  "1953": {
    "city": "Sion RZ",
    "canton": "VS",
    "lat": 46.22271,
    "lng": 7.33948
  },
  "1955": {
    "city": "St-Pierre-de-Clages",
    "canton": "VS",
    "lat": 46.19638,
    "lng": 7.2309
  },
  "1957": {
    "city": "Ardon",
    "canton": "VS",
    "lat": 46.20974,
    "lng": 7.25723
  },
  "1958": {
    "city": "Uvrier",
    "canton": "VS",
    "lat": 46.25326,
    "lng": 7.41691
  },
  "1961": {
    "city": "Vernamiège",
    "canton": "VS",
    "lat": 46.21124,
    "lng": 7.43173
  },
  "1962": {
    "city": "Pont-de-la-Morge (Sion)",
    "canton": "VS",
    "lat": 46.2391,
    "lng": 7.31403
  },
  "1963": {
    "city": "Vétroz",
    "canton": "VS",
    "lat": 46.22575,
    "lng": 7.28197
  },
  "1964": {
    "city": "Conthey",
    "canton": "VS",
    "lat": 46.223,
    "lng": 7.30355
  },
  "1965": {
    "city": "St-Germain (Savièse)",
    "canton": "VS",
    "lat": 46.25091,
    "lng": 7.34973
  },
  "1966": {
    "city": "Ayent",
    "canton": "VS",
    "lat": 46.34765,
    "lng": 7.43605
  },
  "1967": {
    "city": "Bramois",
    "canton": "VS",
    "lat": 46.23342,
    "lng": 7.40564
  },
  "1968": {
    "city": "Mase",
    "canton": "VS",
    "lat": 46.19226,
    "lng": 7.45766
  },
  "1969": {
    "city": "Trogne (St-Martin)",
    "canton": "VS",
    "lat": 46.1678,
    "lng": 7.45153
  },
  "1971": {
    "city": "Grimisuat",
    "canton": "VS",
    "lat": 46.25837,
    "lng": 7.38235
  },
  "1972": {
    "city": "Anzère",
    "canton": "VS",
    "lat": 46.29724,
    "lng": 7.3989
  },
  "1973": {
    "city": "Nax",
    "canton": "VS",
    "lat": 46.22842,
    "lng": 7.42838
  },
  "1974": {
    "city": "Arbaz",
    "canton": "VS",
    "lat": 46.27996,
    "lng": 7.39003
  },
  "1975": {
    "city": "St-Séverin",
    "canton": "VS",
    "lat": 46.23866,
    "lng": 7.30326
  },
  "1976": {
    "city": "Erde",
    "canton": "VS",
    "lat": 46.24282,
    "lng": 7.29433
  },
  "1977": {
    "city": "Icogne",
    "canton": "VS",
    "lat": 46.2908,
    "lng": 7.43817
  },
  "1978": {
    "city": "Lens",
    "canton": "VS",
    "lat": 46.28087,
    "lng": 7.45071
  },
  "1981": {
    "city": "Vex",
    "canton": "VS",
    "lat": 46.21117,
    "lng": 7.38484
  },
  "1982": {
    "city": "Euseigne",
    "canton": "VS",
    "lat": 46.15122,
    "lng": 7.45383
  },
  "1983": {
    "city": "Lanna",
    "canton": "VS",
    "lat": 46.12084,
    "lng": 7.4792
  },
  "1984": {
    "city": "Les Haudères",
    "canton": "VS",
    "lat": 46.08316,
    "lng": 7.50904
  },
  "1985": {
    "city": "Villa (Evolène)",
    "canton": "VS",
    "lat": 46.11023,
    "lng": 7.51286
  },
  "1986": {
    "city": "Arolla",
    "canton": "VS",
    "lat": 46.02337,
    "lng": 7.48179
  },
  "1987": {
    "city": "Hérémence",
    "canton": "VS",
    "lat": 46.16142,
    "lng": 7.38947
  },
  "1988": {
    "city": "Thyon",
    "canton": "VS",
    "lat": 46.18038,
    "lng": 7.37026
  },
  "1991": {
    "city": "Turin (Salins)",
    "canton": "VS",
    "lat": 46.21514,
    "lng": 7.35427
  },
  "1992": {
    "city": "Les Mayens-de-Sion",
    "canton": "VS",
    "lat": 46.20185,
    "lng": 7.37859
  },
  "1993": {
    "city": "Veysonnaz",
    "canton": "VS",
    "lat": 46.19575,
    "lng": 7.33798
  },
  "1994": {
    "city": "Aproz (Nendaz)",
    "canton": "VS",
    "lat": 46.20633,
    "lng": 7.31602
  },
  "1996": {
    "city": "Saclentse",
    "canton": "VS",
    "lat": 46.176,
    "lng": 7.31967
  },
  "1997": {
    "city": "Sornard (Nendaz)",
    "canton": "VS",
    "lat": 46.18805,
    "lng": 7.30422
  },
  "2000": {
    "city": "Neuchâtel",
    "canton": "NE",
    "lat": 46.9996,
    "lng": 6.93441
  },
  "2001": {
    "city": "Neuchâtel 1",
    "canton": "NE",
    "lat": 46.99632,
    "lng": 6.93685
  },
  "2002": {
    "city": "Neuchâtel 2",
    "canton": "NE",
    "lat": 46.99401,
    "lng": 6.9348
  },
  "2003": {
    "city": "Neuchâtel 3",
    "canton": "NE",
    "lat": 47.0515,
    "lng": 7.03798
  },
  "2004": {
    "city": "Neuchâtel 4",
    "canton": "NE",
    "lat": 46.99342,
    "lng": 6.92704
  },
  "2006": {
    "city": "Neuchâtel 6",
    "canton": "NE",
    "lat": 46.98933,
    "lng": 6.90711
  },
  "2008": {
    "city": "Neuchâtel",
    "canton": "NE",
    "lat": 47.00309,
    "lng": 6.95771
  },
  "2009": {
    "city": "Neuchâtel 9",
    "canton": "NE",
    "lat": 47.00828,
    "lng": 6.96126
  },
  "2010": {
    "city": "Neuchâtel OFS",
    "canton": "NE",
    "lat": 46.99726,
    "lng": 6.93862
  },
  "2012": {
    "city": "Auvernier",
    "canton": "NE",
    "lat": 46.97757,
    "lng": 6.87692
  },
  "2013": {
    "city": "Colombier NE",
    "canton": "NE",
    "lat": 46.9675,
    "lng": 6.85972
  },
  "2014": {
    "city": "Bôle",
    "canton": "NE",
    "lat": 46.96729,
    "lng": 6.84128
  },
  "2015": {
    "city": "Areuse",
    "canton": "NE",
    "lat": 46.9518,
    "lng": 6.8587
  },
  "2016": {
    "city": "Cortaillod",
    "canton": "NE",
    "lat": 46.94603,
    "lng": 6.85164
  },
  "2017": {
    "city": "Boudry",
    "canton": "NE",
    "lat": 46.94713,
    "lng": 6.81883
  },
  "2019": {
    "city": "Rochefort",
    "canton": "NE",
    "lat": 46.98278,
    "lng": 6.8082
  },
  "2022": {
    "city": "Bevaix",
    "canton": "NE",
    "lat": 46.92954,
    "lng": 6.80126
  },
  "2023": {
    "city": "Gorgier",
    "canton": "NE",
    "lat": 46.92196,
    "lng": 6.76469
  },
  "2024": {
    "city": "St-Aubin-Sauges",
    "canton": "NE",
    "lat": 46.89502,
    "lng": 6.76697
  },
  "2025": {
    "city": "Chez-le-Bart",
    "canton": "NE",
    "lat": 46.90116,
    "lng": 6.78589
  },
  "2027": {
    "city": "Montalchez",
    "canton": "NE",
    "lat": 46.89776,
    "lng": 6.74654
  },
  "2028": {
    "city": "Vaumarcus",
    "canton": "NE",
    "lat": 46.87587,
    "lng": 6.73946
  },
  "2034": {
    "city": "Peseux",
    "canton": "NE",
    "lat": 46.99498,
    "lng": 6.88962
  },
  "2035": {
    "city": "Corcelles NE",
    "canton": "NE",
    "lat": 46.98509,
    "lng": 6.87665
  },
  "2036": {
    "city": "Cormondrèche",
    "canton": "NE",
    "lat": 46.98049,
    "lng": 6.86872
  },
  "2037": {
    "city": "Montmollin",
    "canton": "NE",
    "lat": 46.99295,
    "lng": 6.84688
  },
  "2042": {
    "city": "Valangin",
    "canton": "NE",
    "lat": 47.01606,
    "lng": 6.90647
  },
  "2043": {
    "city": "Boudevilliers",
    "canton": "NE",
    "lat": 47.03305,
    "lng": 6.8672
  },
  "2046": {
    "city": "Fontaines NE",
    "canton": "NE",
    "lat": 47.03293,
    "lng": 6.90692
  },
  "2052": {
    "city": "La Vue-des-Alpes",
    "canton": "NE",
    "lat": 47.0544,
    "lng": 6.85349
  },
  "2053": {
    "city": "Cernier",
    "canton": "NE",
    "lat": 47.05757,
    "lng": 6.9048
  },
  "2054": {
    "city": "Chézard-St-Martin",
    "canton": "NE",
    "lat": 47.06652,
    "lng": 6.91894
  },
  "2056": {
    "city": "Dombresson",
    "canton": "NE",
    "lat": 47.067,
    "lng": 6.95087
  },
  "2057": {
    "city": "Villiers",
    "canton": "NE",
    "lat": 47.07449,
    "lng": 6.97136
  },
  "2058": {
    "city": "Le Pâquier NE",
    "canton": "NE",
    "lat": 47.11751,
    "lng": 6.9986
  },
  "2063": {
    "city": "Vilars NE",
    "canton": "NE",
    "lat": 47.0317,
    "lng": 6.92696
  },
  "2065": {
    "city": "Savagnier",
    "canton": "NE",
    "lat": 47.04704,
    "lng": 6.95766
  },
  "2067": {
    "city": "Chaumont",
    "canton": "NE",
    "lat": 47.03001,
    "lng": 6.95642
  },
  "2068": {
    "city": "Hauterive NE",
    "canton": "NE",
    "lat": 47.01452,
    "lng": 6.97012
  },
  "2072": {
    "city": "St-Blaise",
    "canton": "NE",
    "lat": 47.03197,
    "lng": 6.99248
  },
  "2073": {
    "city": "Enges",
    "canton": "NE",
    "lat": 47.05662,
    "lng": 7.0121
  },
  "2074": {
    "city": "Marin-Epagnier",
    "canton": "NE",
    "lat": 47.00598,
    "lng": 7.00716
  },
  "2075": {
    "city": "Wavre",
    "canton": "NE",
    "lat": 47.024,
    "lng": 7.02039
  },
  "2087": {
    "city": "Cornaux NE",
    "canton": "NE",
    "lat": 47.03801,
    "lng": 7.02135
  },
  "2088": {
    "city": "Cressier NE",
    "canton": "NE",
    "lat": 47.05086,
    "lng": 7.03736
  },
  "2103": {
    "city": "Noiraigue",
    "canton": "NE",
    "lat": 46.95522,
    "lng": 6.7222
  },
  "2105": {
    "city": "Travers",
    "canton": "NE",
    "lat": 46.94023,
    "lng": 6.67604
  },
  "2108": {
    "city": "Couvet",
    "canton": "NE",
    "lat": 46.9291,
    "lng": 6.62078
  },
  "2112": {
    "city": "Môtiers NE",
    "canton": "NE",
    "lat": 46.9111,
    "lng": 6.61131
  },
  "2113": {
    "city": "Boveresse",
    "canton": "NE",
    "lat": 46.91463,
    "lng": 6.59819
  },
  "2114": {
    "city": "Fleurier",
    "canton": "NE",
    "lat": 46.90231,
    "lng": 6.58084
  },
  "2115": {
    "city": "Buttes",
    "canton": "NE",
    "lat": 46.88584,
    "lng": 6.5483
  },
  "2116": {
    "city": "Mont-de-Buttes",
    "canton": "NE",
    "lat": 46.87717,
    "lng": 6.5091
  },
  "2117": {
    "city": "La Côte-aux-Fées",
    "canton": "NE",
    "lat": 46.85965,
    "lng": 6.49679
  },
  "2123": {
    "city": "St-Sulpice NE",
    "canton": "NE",
    "lat": 46.91403,
    "lng": 6.56632
  },
  "2124": {
    "city": "Les Sagnettes",
    "canton": "NE",
    "lat": 46.93857,
    "lng": 6.59252
  },
  "2126": {
    "city": "Les Verrières",
    "canton": "NE",
    "lat": 46.88937,
    "lng": 6.47671
  },
  "2127": {
    "city": "Les Bayards",
    "canton": "NE",
    "lat": 46.92177,
    "lng": 6.51622
  },
  "2149": {
    "city": "Fretereules",
    "canton": "NE",
    "lat": 46.96206,
    "lng": 6.76594
  },
  "2206": {
    "city": "Les Geneveys-sur-Coffrane",
    "canton": "NE",
    "lat": 47.01476,
    "lng": 6.84494
  },
  "2207": {
    "city": "Coffrane",
    "canton": "NE",
    "lat": 47.0106,
    "lng": 6.86229
  },
  "2208": {
    "city": "Les Hauts-Geneveys",
    "canton": "NE",
    "lat": 47.04753,
    "lng": 6.87234
  },
  "2300": {
    "city": "La Chaux-de-Fonds",
    "canton": "NE",
    "lat": 47.14452,
    "lng": 6.85144
  },
  "2301": {
    "city": "La Chaux-de-Fonds",
    "canton": "NE",
    "lat": 47.10117,
    "lng": 6.8303
  },
  "2302": {
    "city": "La Chaux-de-Fonds",
    "canton": "NE",
    "lat": 47.09862,
    "lng": 6.82511
  },
  "2303": {
    "city": "La Chaux-de-Fonds",
    "canton": "NE",
    "lat": 47.10117,
    "lng": 6.8303
  },
  "2304": {
    "city": "La Chaux-de-Fonds",
    "canton": "NE",
    "lat": 47.10117,
    "lng": 6.8303
  },
  "2314": {
    "city": "La Sagne NE",
    "canton": "NE",
    "lat": 47.0251,
    "lng": 6.78258
  },
  "2316": {
    "city": "Petit-Martel",
    "canton": "NE",
    "lat": 47.01095,
    "lng": 6.75605
  },
  "2318": {
    "city": "Brot-Plamboz",
    "canton": "NE",
    "lat": 46.99284,
    "lng": 6.75339
  },
  "2322": {
    "city": "Le Crêt-du-Locle",
    "canton": "NE",
    "lat": 47.0787,
    "lng": 6.78487
  },
  "2325": {
    "city": "Les Planchettes",
    "canton": "NE",
    "lat": 47.10645,
    "lng": 6.77029
  },
  "2333": {
    "city": "La Ferrière",
    "canton": "BE",
    "lat": 47.14186,
    "lng": 6.89312
  },
  "2336": {
    "city": "Les Bois",
    "canton": "JU",
    "lat": 47.17749,
    "lng": 6.90529
  },
  "2338": {
    "city": "Muriaux",
    "canton": "JU",
    "lat": 47.23106,
    "lng": 6.9911
  },
  "2340": {
    "city": "Le Noirmont",
    "canton": "JU",
    "lat": 47.20922,
    "lng": 6.95298
  },
  "2345": {
    "city": "Les Breuleux",
    "canton": "JU",
    "lat": 47.20803,
    "lng": 6.99651
  },
  "2350": {
    "city": "Saignelégier",
    "canton": "JU",
    "lat": 47.25618,
    "lng": 6.9964
  },
  "2353": {
    "city": "Les Pommerats",
    "canton": "JU",
    "lat": 47.27152,
    "lng": 6.98531
  },
  "2354": {
    "city": "Goumois",
    "canton": "JU",
    "lat": 47.27682,
    "lng": 6.95535
  },
  "2360": {
    "city": "Le Bémont JU",
    "canton": "JU",
    "lat": 47.26381,
    "lng": 7.01312
  },
  "2362": {
    "city": "Montfavergier",
    "canton": "JU",
    "lat": 47.30719,
    "lng": 7.09885
  },
  "2363": {
    "city": "Les Enfers",
    "canton": "JU",
    "lat": 47.28704,
    "lng": 7.03502
  },
  "2364": {
    "city": "St-Brais",
    "canton": "JU",
    "lat": 47.3053,
    "lng": 7.11293
  },
  "2400": {
    "city": "Le Locle",
    "canton": "NE",
    "lat": 47.04335,
    "lng": 6.74672
  },
  "2405": {
    "city": "La Chaux-du-Milieu",
    "canton": "NE",
    "lat": 47.00428,
    "lng": 6.67867
  },
  "2406": {
    "city": "Les Taillères",
    "canton": "NE",
    "lat": 46.96965,
    "lng": 6.5701
  },
  "2414": {
    "city": "Le Cerneux-Péquignot",
    "canton": "NE",
    "lat": 47.01667,
    "lng": 6.66496
  },
  "2416": {
    "city": "Les Brenets",
    "canton": "NE",
    "lat": 47.06808,
    "lng": 6.70476
  },
  "2500": {
    "city": "Biel/Bienne",
    "canton": "BE",
    "lat": 47.1351,
    "lng": 7.24846
  },
  "2501": {
    "city": "Biel/Bienne",
    "canton": "BE",
    "lat": 47.1351,
    "lng": 7.24846
  },
  "2502": {
    "city": "Biel/Bienne",
    "canton": "BE",
    "lat": 47.14876,
    "lng": 7.24987
  },
  "2503": {
    "city": "Biel/Bienne",
    "canton": "BE",
    "lat": 47.13357,
    "lng": 7.25777
  },
  "2504": {
    "city": "Biel/Bienne",
    "canton": "BE",
    "lat": 47.15434,
    "lng": 7.27781
  },
  "2505": {
    "city": "Biel/Bienne",
    "canton": "BE",
    "lat": 47.13613,
    "lng": 7.21722
  },
  "2512": {
    "city": "Tüscherz-Alfermée",
    "canton": "BE",
    "lat": 47.11795,
    "lng": 7.19497
  },
  "2513": {
    "city": "Twann",
    "canton": "BE",
    "lat": 47.10184,
    "lng": 7.17504
  },
  "2514": {
    "city": "Ligerz",
    "canton": "BE",
    "lat": 47.09157,
    "lng": 7.14035
  },
  "2515": {
    "city": "Prêles",
    "canton": "BE",
    "lat": 47.09338,
    "lng": 7.11833
  },
  "2516": {
    "city": "Lamboing",
    "canton": "BE",
    "lat": 47.11297,
    "lng": 7.15827
  },
  "2517": {
    "city": "Diesse",
    "canton": "BE",
    "lat": 47.11331,
    "lng": 7.11649
  },
  "2518": {
    "city": "Nods",
    "canton": "BE",
    "lat": 47.12294,
    "lng": 7.07586
  },
  "2520": {
    "city": "La Neuveville",
    "canton": "BE",
    "lat": 47.0632,
    "lng": 7.09126
  },
  "2523": {
    "city": "Lignières",
    "canton": "NE",
    "lat": 47.08203,
    "lng": 7.06616
  },
  "2525": {
    "city": "Le Landeron",
    "canton": "NE",
    "lat": 47.04485,
    "lng": 7.0693
  },
  "2532": {
    "city": "Magglingen/Macolin",
    "canton": "BE",
    "lat": 47.14139,
    "lng": 7.2164
  },
  "2533": {
    "city": "Evilard",
    "canton": "BE",
    "lat": 47.14986,
    "lng": 7.23248
  },
  "2534": {
    "city": "Orvin",
    "canton": "BE",
    "lat": 47.16055,
    "lng": 7.21347
  },
  "2535": {
    "city": "Frinvillier",
    "canton": "BE",
    "lat": 47.16907,
    "lng": 7.25684
  },
  "2536": {
    "city": "Plagne",
    "canton": "BE",
    "lat": 47.18842,
    "lng": 7.28733
  },
  "2537": {
    "city": "Vauffelin",
    "canton": "BE",
    "lat": 47.19144,
    "lng": 7.31093
  },
  "2538": {
    "city": "Romont BE",
    "canton": "BE",
    "lat": 47.19255,
    "lng": 7.33188
  },
  "2540": {
    "city": "Grenchen",
    "canton": "SO",
    "lat": 47.16369,
    "lng": 7.40662
  },
  "2542": {
    "city": "Pieterlen",
    "canton": "BE",
    "lat": 47.1751,
    "lng": 7.3386
  },
  "2543": {
    "city": "Lengnau BE",
    "canton": "BE",
    "lat": 47.18076,
    "lng": 7.36928
  },
  "2544": {
    "city": "Bettlach",
    "canton": "SO",
    "lat": 47.20268,
    "lng": 7.42411
  },
  "2545": {
    "city": "Selzach",
    "canton": "SO",
    "lat": 47.20483,
    "lng": 7.4543
  },
  "2552": {
    "city": "Orpund",
    "canton": "BE",
    "lat": 47.13903,
    "lng": 7.30688
  },
  "2553": {
    "city": "Safnern",
    "canton": "BE",
    "lat": 47.15002,
    "lng": 7.32345
  },
  "2554": {
    "city": "Meinisberg",
    "canton": "BE",
    "lat": 47.15963,
    "lng": 7.34797
  },
  "2555": {
    "city": "Brügg BE",
    "canton": "BE",
    "lat": 47.12371,
    "lng": 7.28126
  },
  "2556": {
    "city": "Schwadernau",
    "canton": "BE",
    "lat": 47.12806,
    "lng": 7.30301
  },
  "2557": {
    "city": "Studen BE",
    "canton": "BE",
    "lat": 47.11158,
    "lng": 7.30263
  },
  "2558": {
    "city": "Aegerten",
    "canton": "BE",
    "lat": 47.12151,
    "lng": 7.28863
  },
  "2560": {
    "city": "Nidau",
    "canton": "BE",
    "lat": 47.12452,
    "lng": 7.23688
  },
  "2562": {
    "city": "Port",
    "canton": "BE",
    "lat": 47.11392,
    "lng": 7.25863
  },
  "2563": {
    "city": "Ipsach",
    "canton": "BE",
    "lat": 47.11431,
    "lng": 7.23249
  },
  "2564": {
    "city": "Bellmund",
    "canton": "BE",
    "lat": 47.10021,
    "lng": 7.24337
  },
  "2565": {
    "city": "Jens",
    "canton": "BE",
    "lat": 47.09782,
    "lng": 7.26374
  },
  "2572": {
    "city": "Sutz",
    "canton": "BE",
    "lat": 47.10209,
    "lng": 7.21988
  },
  "2575": {
    "city": "Täuffelen",
    "canton": "BE",
    "lat": 47.06165,
    "lng": 7.1954
  },
  "2576": {
    "city": "Lüscherz",
    "canton": "BE",
    "lat": 47.04199,
    "lng": 7.15818
  },
  "2577": {
    "city": "Siselen BE",
    "canton": "BE",
    "lat": 47.03219,
    "lng": 7.18979
  },
  "2603": {
    "city": "Péry",
    "canton": "BE",
    "lat": 47.19281,
    "lng": 7.24944
  },
  "2604": {
    "city": "La Heutte",
    "canton": "BE",
    "lat": 47.19021,
    "lng": 7.22665
  },
  "2605": {
    "city": "Sonceboz-Sombeval",
    "canton": "BE",
    "lat": 47.19434,
    "lng": 7.18782
  },
  "2606": {
    "city": "Corgémont",
    "canton": "BE",
    "lat": 47.18241,
    "lng": 7.1436
  },
  "2607": {
    "city": "Cortébert",
    "canton": "BE",
    "lat": 47.19423,
    "lng": 7.11127
  },
  "2608": {
    "city": "Montagne-de-Courtelary",
    "canton": "BE",
    "lat": 47.16148,
    "lng": 7.11875
  },
  "2610": {
    "city": "St-Imier",
    "canton": "BE",
    "lat": 47.15222,
    "lng": 6.99623
  },
  "2612": {
    "city": "Cormoret",
    "canton": "BE",
    "lat": 47.16885,
    "lng": 7.0462
  },
  "2613": {
    "city": "Villeret",
    "canton": "BE",
    "lat": 47.15026,
    "lng": 7.02986
  },
  "2615": {
    "city": "Sonvilier",
    "canton": "BE",
    "lat": 47.13002,
    "lng": 6.96044
  },
  "2616": {
    "city": "Renan BE",
    "canton": "BE",
    "lat": 47.1266,
    "lng": 6.9285
  },
  "2710": {
    "city": "Tavannes",
    "canton": "BE",
    "lat": 47.22008,
    "lng": 7.19853
  },
  "2712": {
    "city": "Le Fuet",
    "canton": "BE",
    "lat": 47.26144,
    "lng": 7.18759
  },
  "2713": {
    "city": "Bellelay",
    "canton": "BE",
    "lat": 47.2631,
    "lng": 7.1675
  },
  "2714": {
    "city": "Le Prédame",
    "canton": "JU",
    "lat": 47.24956,
    "lng": 7.10345
  },
  "2715": {
    "city": "Monible",
    "canton": "BE",
    "lat": 47.27619,
    "lng": 7.20014
  },
  "2716": {
    "city": "Sornetan",
    "canton": "BE",
    "lat": 47.2742,
    "lng": 7.2159
  },
  "2717": {
    "city": "Rebévelier",
    "canton": "BE",
    "lat": 47.29103,
    "lng": 7.19204
  },
  "2718": {
    "city": "Lajoux JU",
    "canton": "JU",
    "lat": 47.27888,
    "lng": 7.13806
  },
  "2720": {
    "city": "Tramelan",
    "canton": "BE",
    "lat": 47.2235,
    "lng": 7.10298
  },
  "2722": {
    "city": "Les Reussilles",
    "canton": "BE",
    "lat": 47.22452,
    "lng": 7.0837
  },
  "2723": {
    "city": "Mont-Tramelan",
    "canton": "BE",
    "lat": 47.20825,
    "lng": 7.04931
  },
  "2732": {
    "city": "Saules BE",
    "canton": "BE",
    "lat": 47.24425,
    "lng": 7.21852
  },
  "2733": {
    "city": "Pontenet",
    "canton": "BE",
    "lat": 47.24638,
    "lng": 7.25709
  },
  "2735": {
    "city": "Malleray",
    "canton": "BE",
    "lat": 47.2568,
    "lng": 7.26335
  },
  "2736": {
    "city": "Sorvilier",
    "canton": "BE",
    "lat": 47.23952,
    "lng": 7.30607
  },
  "2738": {
    "city": "Court",
    "canton": "BE",
    "lat": 47.26327,
    "lng": 7.31118
  },
  "2740": {
    "city": "Moutier",
    "canton": "BE",
    "lat": 47.27827,
    "lng": 7.37167
  },
  "2742": {
    "city": "Perrefitte",
    "canton": "BE",
    "lat": 47.27909,
    "lng": 7.32168
  },
  "2743": {
    "city": "Eschert",
    "canton": "BE",
    "lat": 47.27556,
    "lng": 7.39923
  },
  "2744": {
    "city": "Belprahon",
    "canton": "BE",
    "lat": 47.28418,
    "lng": 7.40484
  },
  "2745": {
    "city": "Grandval",
    "canton": "BE",
    "lat": 47.28351,
    "lng": 7.42527
  },
  "2746": {
    "city": "Crémines",
    "canton": "BE",
    "lat": 47.28336,
    "lng": 7.43973
  },
  "2747": {
    "city": "Seehof",
    "canton": "BE",
    "lat": 47.3056,
    "lng": 7.52378
  },
  "2748": {
    "city": "Souboz",
    "canton": "BE",
    "lat": 47.27403,
    "lng": 7.24312
  },
  "2762": {
    "city": "Roches BE",
    "canton": "BE",
    "lat": 47.3008,
    "lng": 7.38402
  },
  "2800": {
    "city": "Delémont",
    "canton": "JU",
    "lat": 47.36586,
    "lng": 7.35983
  },
  "2802": {
    "city": "Develier",
    "canton": "JU",
    "lat": 47.35813,
    "lng": 7.29623
  },
  "2803": {
    "city": "Bourrignon",
    "canton": "JU",
    "lat": 47.39679,
    "lng": 7.24479
  },
  "2805": {
    "city": "Soyhières",
    "canton": "JU",
    "lat": 47.3905,
    "lng": 7.3691
  },
  "2806": {
    "city": "Mettembert",
    "canton": "JU",
    "lat": 47.39797,
    "lng": 7.32261
  },
  "2807": {
    "city": "Pleigne",
    "canton": "JU",
    "lat": 47.40728,
    "lng": 7.2898
  },
  "2812": {
    "city": "Movelier",
    "canton": "JU",
    "lat": 47.40919,
    "lng": 7.31721
  },
  "2813": {
    "city": "Ederswiler",
    "canton": "JU",
    "lat": 47.42651,
    "lng": 7.33556
  },
  "2814": {
    "city": "Roggenburg",
    "canton": "BL",
    "lat": 47.43418,
    "lng": 7.34073
  },
  "2822": {
    "city": "Courroux",
    "canton": "JU",
    "lat": 47.37432,
    "lng": 7.37005
  },
  "2823": {
    "city": "Courcelon",
    "canton": "JU",
    "lat": 47.36273,
    "lng": 7.393
  },
  "2824": {
    "city": "Vicques",
    "canton": "JU",
    "lat": 47.34855,
    "lng": 7.41107
  },
  "2825": {
    "city": "Courchapoix",
    "canton": "JU",
    "lat": 47.34872,
    "lng": 7.45584
  },
  "2826": {
    "city": "Corban",
    "canton": "JU",
    "lat": 47.3463,
    "lng": 7.47624
  },
  "2827": {
    "city": "Schelten",
    "canton": "BE",
    "lat": 47.33595,
    "lng": 7.55178
  },
  "2828": {
    "city": "Montsevelier",
    "canton": "JU",
    "lat": 47.3608,
    "lng": 7.50808
  },
  "2829": {
    "city": "Vermes",
    "canton": "JU",
    "lat": 47.329,
    "lng": 7.47512
  },
  "2830": {
    "city": "Vellerat",
    "canton": "JU",
    "lat": 47.31919,
    "lng": 7.37057
  },
  "2832": {
    "city": "Rebeuvelier",
    "canton": "JU",
    "lat": 47.32458,
    "lng": 7.41523
  },
  "2842": {
    "city": "Rossemaison",
    "canton": "JU",
    "lat": 47.34636,
    "lng": 7.34287
  },
  "2843": {
    "city": "Châtillon JU",
    "canton": "JU",
    "lat": 47.3311,
    "lng": 7.34573
  },
  "2852": {
    "city": "Courtételle",
    "canton": "JU",
    "lat": 47.34272,
    "lng": 7.31712
  },
  "2853": {
    "city": "Courfaivre",
    "canton": "JU",
    "lat": 47.33437,
    "lng": 7.28503
  },
  "2854": {
    "city": "Bassecourt",
    "canton": "JU",
    "lat": 47.32783,
    "lng": 7.22246
  },
  "2855": {
    "city": "Glovelier",
    "canton": "JU",
    "lat": 47.31925,
    "lng": 7.15469
  },
  "2856": {
    "city": "Boécourt",
    "canton": "JU",
    "lat": 47.35495,
    "lng": 7.2108
  },
  "2857": {
    "city": "Montavon",
    "canton": "JU",
    "lat": 47.37308,
    "lng": 7.2357
  },
  "2863": {
    "city": "Undervelier",
    "canton": "JU",
    "lat": 47.30509,
    "lng": 7.22181
  },
  "2864": {
    "city": "Soulce",
    "canton": "JU",
    "lat": 47.30368,
    "lng": 7.26993
  },
  "2873": {
    "city": "Saulcy",
    "canton": "JU",
    "lat": 47.30802,
    "lng": 7.17526
  },
  "2882": {
    "city": "St-Ursanne",
    "canton": "JU",
    "lat": 47.36428,
    "lng": 7.15428
  },
  "2883": {
    "city": "Montmelon",
    "canton": "JU",
    "lat": 47.35466,
    "lng": 7.18194
  },
  "2884": {
    "city": "Montenol",
    "canton": "JU",
    "lat": 47.35148,
    "lng": 7.14958
  },
  "2885": {
    "city": "Epauvillers",
    "canton": "JU",
    "lat": 47.33486,
    "lng": 7.11512
  },
  "2886": {
    "city": "Epiquerez",
    "canton": "JU",
    "lat": 47.32545,
    "lng": 7.07007
  },
  "2887": {
    "city": "Soubey",
    "canton": "JU",
    "lat": 47.30857,
    "lng": 7.04826
  },
  "2888": {
    "city": "Seleute",
    "canton": "JU",
    "lat": 47.3668,
    "lng": 7.11257
  },
  "2889": {
    "city": "Ocourt",
    "canton": "JU",
    "lat": 47.35186,
    "lng": 7.07777
  },
  "2900": {
    "city": "Porrentruy 2",
    "canton": "JU",
    "lat": 47.41693,
    "lng": 7.07275
  },
  "2902": {
    "city": "Fontenais",
    "canton": "JU",
    "lat": 47.4002,
    "lng": 7.07718
  },
  "2903": {
    "city": "Villars-sur-Fontenais",
    "canton": "JU",
    "lat": 47.38305,
    "lng": 7.07587
  },
  "2904": {
    "city": "Bressaucourt",
    "canton": "JU",
    "lat": 47.38755,
    "lng": 7.0366
  },
  "2905": {
    "city": "Courtedoux",
    "canton": "JU",
    "lat": 47.4092,
    "lng": 7.04217
  },
  "2906": {
    "city": "Chevenez",
    "canton": "JU",
    "lat": 47.39159,
    "lng": 6.99885
  },
  "2907": {
    "city": "Rocourt",
    "canton": "JU",
    "lat": 47.39044,
    "lng": 6.95717
  },
  "2908": {
    "city": "Grandfontaine",
    "canton": "JU",
    "lat": 47.39067,
    "lng": 6.93873
  },
  "2912": {
    "city": "Roche-d'Or",
    "canton": "JU",
    "lat": 47.36743,
    "lng": 6.95541
  },
  "2914": {
    "city": "Damvant",
    "canton": "JU",
    "lat": 47.37246,
    "lng": 6.89688
  },
  "2915": {
    "city": "Bure",
    "canton": "JU",
    "lat": 47.44242,
    "lng": 7.00681
  },
  "2916": {
    "city": "Fahy",
    "canton": "JU",
    "lat": 47.418,
    "lng": 6.95023
  },
  "2922": {
    "city": "Courchavon",
    "canton": "JU",
    "lat": 47.44106,
    "lng": 7.05577
  },
  "2923": {
    "city": "Courtemaîche",
    "canton": "JU",
    "lat": 47.47081,
    "lng": 7.04675
  },
  "2924": {
    "city": "Montignez",
    "canton": "JU",
    "lat": 47.48726,
    "lng": 7.059
  },
  "2925": {
    "city": "Buix",
    "canton": "JU",
    "lat": 47.48016,
    "lng": 7.03093
  },
  "2926": {
    "city": "Boncourt",
    "canton": "JU",
    "lat": 47.49606,
    "lng": 7.01575
  },
  "2932": {
    "city": "Coeuve",
    "canton": "JU",
    "lat": 47.45241,
    "lng": 7.09982
  },
  "2933": {
    "city": "Lugnez",
    "canton": "JU",
    "lat": 47.48438,
    "lng": 7.09856
  },
  "2935": {
    "city": "Beurnevésin",
    "canton": "JU",
    "lat": 47.49283,
    "lng": 7.13653
  },
  "2942": {
    "city": "Alle",
    "canton": "JU",
    "lat": 47.42606,
    "lng": 7.12784
  },
  "2943": {
    "city": "Vendlincourt",
    "canton": "JU",
    "lat": 47.45111,
    "lng": 7.14725
  },
  "2944": {
    "city": "Bonfol",
    "canton": "JU",
    "lat": 47.47708,
    "lng": 7.15152
  },
  "2946": {
    "city": "Miécourt",
    "canton": "JU",
    "lat": 47.42599,
    "lng": 7.18611
  },
  "2947": {
    "city": "Charmoille",
    "canton": "JU",
    "lat": 47.42396,
    "lng": 7.19068
  },
  "2950": {
    "city": "Courtemautruy",
    "canton": "JU",
    "lat": 47.39463,
    "lng": 7.13834
  },
  "2952": {
    "city": "Cornol",
    "canton": "JU",
    "lat": 47.40701,
    "lng": 7.16171
  },
  "2953": {
    "city": "Pleujouse",
    "canton": "JU",
    "lat": 47.41125,
    "lng": 7.20746
  },
  "2954": {
    "city": "Asuel",
    "canton": "JU",
    "lat": 47.39703,
    "lng": 7.20667
  },
  "3000": {
    "city": "Bern",
    "canton": "BE",
    "lat": 46.94722,
    "lng": 7.4512
  },
  "3001": {
    "city": "Bern",
    "canton": "BE",
    "lat": 46.94763,
    "lng": 7.44043
  },
  "3002": {
    "city": "Bern PostFinance",
    "canton": "BE",
    "lat": 46.96077,
    "lng": 7.45404
  },
  "3003": {
    "city": "Bern 3 Ständerat",
    "canton": "BE",
    "lat": 46.7951,
    "lng": 7.6036
  },
  "3004": {
    "city": "Bern",
    "canton": "BE",
    "lat": 46.97255,
    "lng": 7.44711
  },
  "3005": {
    "city": "Bern",
    "canton": "BE",
    "lat": 46.94037,
    "lng": 7.44893
  },
  "3006": {
    "city": "Bern",
    "canton": "BE",
    "lat": 46.94624,
    "lng": 7.47105
  },
  "3007": {
    "city": "Bern",
    "canton": "BE",
    "lat": 46.93632,
    "lng": 7.43612
  },
  "3008": {
    "city": "Bern",
    "canton": "BE",
    "lat": 46.94262,
    "lng": 7.41428
  },
  "3010": {
    "city": "Bern",
    "canton": "BE",
    "lat": 46.94773,
    "lng": 7.42479
  },
  "3011": {
    "city": "Bern",
    "canton": "BE",
    "lat": 46.94924,
    "lng": 7.44391
  },
  "3012": {
    "city": "Bern",
    "canton": "BE",
    "lat": 46.95886,
    "lng": 7.42733
  },
  "3013": {
    "city": "Bern",
    "canton": "BE",
    "lat": 46.95514,
    "lng": 7.44693
  },
  "3014": {
    "city": "Bern",
    "canton": "BE",
    "lat": 46.96399,
    "lng": 7.46101
  },
  "3015": {
    "city": "Bern",
    "canton": "BE",
    "lat": 46.9392,
    "lng": 7.48536
  },
  "3018": {
    "city": "Bern",
    "canton": "BE",
    "lat": 46.93959,
    "lng": 7.37263
  },
  "3019": {
    "city": "Bern",
    "canton": "BE",
    "lat": 46.93136,
    "lng": 7.33793
  },
  "3020": {
    "city": "Bern",
    "canton": "BE",
    "lat": 46.9509,
    "lng": 7.33775
  },
  "3024": {
    "city": "Bern",
    "canton": "BE",
    "lat": 46.7951,
    "lng": 7.6036
  },
  "3027": {
    "city": "Bern",
    "canton": "BE",
    "lat": 46.95018,
    "lng": 7.36588
  },
  "3029": {
    "city": "Bern",
    "canton": "BE",
    "lat": 46.7951,
    "lng": 7.6036
  },
  "3030": {
    "city": "Bern",
    "canton": "BE",
    "lat": 46.7951,
    "lng": 7.6036
  },
  "3032": {
    "city": "Hinterkappelen",
    "canton": "BE",
    "lat": 46.96781,
    "lng": 7.37748
  },
  "3033": {
    "city": "Wohlen b. Bern",
    "canton": "BE",
    "lat": 46.97369,
    "lng": 7.34896
  },
  "3034": {
    "city": "Murzelen",
    "canton": "BE",
    "lat": 46.98174,
    "lng": 7.31467
  },
  "3035": {
    "city": "Frieswil",
    "canton": "BE",
    "lat": 46.99439,
    "lng": 7.29267
  },
  "3036": {
    "city": "Detligen",
    "canton": "BE",
    "lat": 46.99881,
    "lng": 7.25947
  },
  "3037": {
    "city": "Herrenschwanden",
    "canton": "BE",
    "lat": 46.97563,
    "lng": 7.42333
  },
  "3038": {
    "city": "Kirchlindach",
    "canton": "BE",
    "lat": 47.00366,
    "lng": 7.42686
  },
  "3039": {
    "city": "Bern PF Operations Center",
    "canton": "BE",
    "lat": 46.7951,
    "lng": 7.6036
  },
  "3040": {
    "city": "Bern",
    "canton": "BE",
    "lat": 46.7951,
    "lng": 7.6036
  },
  "3041": {
    "city": "Bern UBS",
    "canton": "BE",
    "lat": 46.7951,
    "lng": 7.6036
  },
  "3042": {
    "city": "Ortschwaben",
    "canton": "BE",
    "lat": 46.99039,
    "lng": 7.4009
  },
  "3043": {
    "city": "Uettligen",
    "canton": "BE",
    "lat": 46.98726,
    "lng": 7.3857
  },
  "3044": {
    "city": "Innerberg",
    "canton": "BE",
    "lat": 46.99617,
    "lng": 7.30636
  },
  "3045": {
    "city": "Meikirch",
    "canton": "BE",
    "lat": 46.99957,
    "lng": 7.38097
  },
  "3046": {
    "city": "Wahlendorf",
    "canton": "BE",
    "lat": 47.00402,
    "lng": 7.33659
  },
  "3047": {
    "city": "Bremgarten b. Bern",
    "canton": "BE",
    "lat": 46.97165,
    "lng": 7.43795
  },
  "3048": {
    "city": "Worblaufen",
    "canton": "BE",
    "lat": 46.97733,
    "lng": 7.46519
  },
  "3049": {
    "city": "Säriswil",
    "canton": "BE",
    "lat": 46.99204,
    "lng": 7.33603
  },
  "3050": {
    "city": "Bern Swisscom",
    "canton": "BE",
    "lat": 46.7951,
    "lng": 7.6036
  },
  "3052": {
    "city": "Zollikofen",
    "canton": "BE",
    "lat": 46.99826,
    "lng": 7.45134
  },
  "3053": {
    "city": "Wiggiswil",
    "canton": "BE",
    "lat": 47.03045,
    "lng": 7.4689
  },
  "3054": {
    "city": "Schüpfen",
    "canton": "BE",
    "lat": 47.04035,
    "lng": 7.34843
  },
  "3063": {
    "city": "Ittigen",
    "canton": "BE",
    "lat": 46.97481,
    "lng": 7.47726
  },
  "3065": {
    "city": "Bolligen",
    "canton": "BE",
    "lat": 46.98401,
    "lng": 7.49798
  },
  "3066": {
    "city": "Stettlen",
    "canton": "BE",
    "lat": 46.95837,
    "lng": 7.52516
  },
  "3067": {
    "city": "Boll",
    "canton": "BE",
    "lat": 46.95128,
    "lng": 7.54299
  },
  "3068": {
    "city": "Utzigen",
    "canton": "BE",
    "lat": 46.97335,
    "lng": 7.57833
  },
  "3071": {
    "city": "Ostermundigen KATA",
    "canton": "BE",
    "lat": 46.96223,
    "lng": 7.47961
  },
  "3072": {
    "city": "Ostermundigen",
    "canton": "BE",
    "lat": 47.42619,
    "lng": 9.22324
  },
  "3073": {
    "city": "Gümligen",
    "canton": "BE",
    "lat": 46.93939,
    "lng": 7.49257
  },
  "3074": {
    "city": "Muri b. Bern",
    "canton": "BE",
    "lat": 46.92971,
    "lng": 7.48669
  },
  "3075": {
    "city": "Vielbringen b. Worb",
    "canton": "BE",
    "lat": 46.91631,
    "lng": 7.54977
  },
  "3076": {
    "city": "Worb",
    "canton": "BE",
    "lat": 46.93056,
    "lng": 7.56104
  },
  "3077": {
    "city": "Enggistein",
    "canton": "BE",
    "lat": 46.93211,
    "lng": 7.59689
  },
  "3078": {
    "city": "Richigen",
    "canton": "BE",
    "lat": 46.91793,
    "lng": 7.5822
  },
  "3082": {
    "city": "Schlosswil",
    "canton": "BE",
    "lat": 46.90954,
    "lng": 7.60864
  },
  "3083": {
    "city": "Trimstein",
    "canton": "BE",
    "lat": 46.90416,
    "lng": 7.57719
  },
  "3084": {
    "city": "Wabern",
    "canton": "BE",
    "lat": 46.9256,
    "lng": 7.45094
  },
  "3085": {
    "city": "Wabern 2 x Weihnachten",
    "canton": "BE",
    "lat": 47.54412,
    "lng": 9.14602
  },
  "3086": {
    "city": "Zimmerwald",
    "canton": "BE",
    "lat": 46.88352,
    "lng": 7.46045
  },
  "3087": {
    "city": "Niedermuhlern",
    "canton": "BE",
    "lat": 46.86142,
    "lng": 7.46535
  },
  "3088": {
    "city": "Rüeggisberg",
    "canton": "BE",
    "lat": 46.83045,
    "lng": 7.45239
  },
  "3089": {
    "city": "Hinterfultigen",
    "canton": "BE",
    "lat": 46.83773,
    "lng": 7.42528
  },
  "3095": {
    "city": "Spiegel b. Bern",
    "canton": "BE",
    "lat": 46.92543,
    "lng": 7.43474
  },
  "3096": {
    "city": "Oberbalm",
    "canton": "BE",
    "lat": 46.87375,
    "lng": 7.403
  },
  "3097": {
    "city": "Liebefeld",
    "canton": "BE",
    "lat": 46.93136,
    "lng": 7.41868
  },
  "3098": {
    "city": "Schliern b. Köniz",
    "canton": "BE",
    "lat": 46.91008,
    "lng": 7.41509
  },
  "3099": {
    "city": "Rüti b. Riggisberg",
    "canton": "BE",
    "lat": 46.78173,
    "lng": 7.45441
  },
  "3110": {
    "city": "Münsingen",
    "canton": "BE",
    "lat": 46.87468,
    "lng": 7.56275
  },
  "3111": {
    "city": "Tägertschi",
    "canton": "BE",
    "lat": 46.87563,
    "lng": 7.58539
  },
  "3112": {
    "city": "Allmendingen b. Bern",
    "canton": "BE",
    "lat": 46.91626,
    "lng": 7.519
  },
  "3113": {
    "city": "Rubigen",
    "canton": "BE",
    "lat": 46.9,
    "lng": 7.54325
  },
  "3114": {
    "city": "Wichtrach",
    "canton": "BE",
    "lat": 46.84971,
    "lng": 7.57598
  },
  "3115": {
    "city": "Gerzensee",
    "canton": "BE",
    "lat": 46.83886,
    "lng": 7.54446
  },
  "3116": {
    "city": "Noflen BE",
    "canton": "BE",
    "lat": 46.80755,
    "lng": 7.54216
  },
  "3122": {
    "city": "Kehrsatz",
    "canton": "BE",
    "lat": 46.9104,
    "lng": 7.47115
  },
  "3123": {
    "city": "Belp",
    "canton": "BE",
    "lat": 46.89525,
    "lng": 7.50463
  },
  "3124": {
    "city": "Belpberg",
    "canton": "BE",
    "lat": 46.86858,
    "lng": 7.52152
  },
  "3125": {
    "city": "Toffen",
    "canton": "BE",
    "lat": 46.85894,
    "lng": 7.49095
  },
  "3126": {
    "city": "Kaufdorf",
    "canton": "BE",
    "lat": 46.83805,
    "lng": 7.49887
  },
  "3127": {
    "city": "Mühlethurnen",
    "canton": "BE",
    "lat": 46.81335,
    "lng": 7.50753
  },
  "3128": {
    "city": "Rümligen",
    "canton": "BE",
    "lat": 46.82743,
    "lng": 7.49847
  },
  "3132": {
    "city": "Riggisberg",
    "canton": "BE",
    "lat": 46.81014,
    "lng": 7.47836
  },
  "3144": {
    "city": "Gasel",
    "canton": "BE",
    "lat": 46.89909,
    "lng": 7.38737
  },
  "3145": {
    "city": "Niederscherli",
    "canton": "BE",
    "lat": 46.88327,
    "lng": 7.4175
  },
  "3147": {
    "city": "Mittelhäusern",
    "canton": "BE",
    "lat": 46.87647,
    "lng": 7.36811
  },